[
  {
    "id": "skydive-angola",
    "name": "Skydive Angola",
    "slug": "skydive-angola",
    "latitude": -9.6528421,
    "longitude": 13.2503134,
    "city": null,
    "state": null,
    "country": "Angola",
    "telephone": "+244925071856",
    "email": "Skydiveangola@gmail.com",
    "website": "https://skydiveangola.com/",
    "source": "scraped"
  },
  {
    "id": "club-de-paracaidismo-cuyo",
    "name": "Club de Paracaidismo Cuyo",
    "slug": "club-de-paracaidismo-cuyo",
    "latitude": -31.60434,
    "longitude": -68.54416,
    "city": null,
    "state": null,
    "country": "Argentina",
    "telephone": null,
    "email": null,
    "website": null,
    "source": "scraped"
  },
  {
    "id": "aero-club-tandil",
    "name": "Aero Club Tandil",
    "slug": "aero-club-tandil",
    "latitude": -37.263767,
    "longitude": -59.09133,
    "city": null,
    "state": null,
    "country": "Argentina",
    "telephone": "+54  0249 4424228",
    "email": "aeroclubtandil@gmail.com",
    "website": null,
    "source": "scraped"
  },
  {
    "id": "centro-de-paracaidismo-deportivo-chaco",
    "name": "Centro de Paracaidismo Deportivo Chaco",
    "slug": "centro-de-paracaidismo-deportivo-chaco",
    "latitude": -27.445659,
    "longitude": -59.050328,
    "city": null,
    "state": null,
    "country": "Argentina",
    "telephone": "54 (3722) 434-692 / (3783) 434-607",
    "email": "paracaidismochaco@hotmail.com",
    "website": null,
    "source": "scraped"
  },
  {
    "id": "skydive-chascomus-buenos-aires",
    "name": "Skydive Chascomus Buenos Aires",
    "slug": "skydive-chascomus-buenos-aires",
    "latitude": -35.54075,
    "longitude": -58.04944,
    "city": null,
    "state": null,
    "country": "Argentina",
    "telephone": "(+54) 911 6690 5846",
    "email": null,
    "website": null,
    "source": "scraped"
  },
  {
    "id": "skydive-reef-arrecifes",
    "name": "Skydive Reef Arrecifes",
    "slug": "skydive-reef-arrecifes",
    "latitude": -34.083311,
    "longitude": -60.099993,
    "city": null,
    "state": null,
    "country": "Argentina",
    "telephone": null,
    "email": "eadaro@monv.com.ar / laurapresedo@excite",
    "website": null,
    "source": "scraped"
  },
  {
    "id": "club-escuela-de-paracaidismo-pergamino",
    "name": "Club Escuela de Paracaidismo Pergamino",
    "slug": "club-escuela-de-paracaidismo-pergamino",
    "latitude": -33.919381,
    "longitude": -60.648985,
    "city": null,
    "state": null,
    "country": "Argentina",
    "telephone": "++54-2477-434361",
    "email": "paracaidismopergamino@yahoo.com.ar",
    "website": null,
    "source": "scraped"
  },
  {
    "id": "paracenter-paracaidismo-alta-gracia",
    "name": "paracenter paracaidismo alta gracia",
    "slug": "paracenter-paracaidismo-alta-gracia",
    "latitude": -31.651111,
    "longitude": -64.393889,
    "city": null,
    "state": null,
    "country": "Argentina",
    "telephone": "+54 51153489627",
    "email": null,
    "website": "https://www.paracaidismoaltagracia.com/en/el-club/como-llegar",
    "source": "scraped"
  },
  {
    "id": "club-escuela-de-paracaidistas-santa-fe",
    "name": "Club Escuela de Paracaidistas Santa Fe",
    "slug": "club-escuela-de-paracaidistas-santa-fe",
    "latitude": -31.472978,
    "longitude": -60.84062,
    "city": null,
    "state": null,
    "country": "Argentina",
    "telephone": "+5403434650407",
    "email": null,
    "website": "https://www.paracaidismosantafe.com.ar",
    "source": "scraped"
  },
  {
    "id": "club-de-paracaidismo-y-rescate-del-neuquen-2",
    "name": "Club de Paracaidismo y Rescate del Neuquén",
    "slug": "club-de-paracaidismo-y-rescate-del-neuquen-2",
    "latitude": -38.952033503511,
    "longitude": -68.146991729736,
    "city": null,
    "state": null,
    "country": "Argentina",
    "telephone": "54 9 299 460-0576",
    "email": null,
    "website": null,
    "source": "scraped"
  },
  {
    "id": "club-de-paracaidismo-santiago-del-estero-2",
    "name": "Club de Paracaidismo Santiago del Estero",
    "slug": "club-de-paracaidismo-santiago-del-estero-2",
    "latitude": -27.759876,
    "longitude": -64.297701,
    "city": null,
    "state": null,
    "country": "Argentina",
    "telephone": "+54 351 714-2282",
    "email": "pagina_2000@latinmail.com",
    "website": null,
    "source": "scraped"
  },
  {
    "id": "gripp",
    "name": "GRIPP",
    "slug": "gripp",
    "latitude": -38.949942,
    "longitude": -68.154445,
    "city": null,
    "state": null,
    "country": "Argentina",
    "telephone": "54 (299) 448-5075",
    "email": "paladino@aol.com.ar",
    "website": null,
    "source": "scraped"
  },
  {
    "id": "skydive-center-buenos-aires",
    "name": "Skydive Center Buenos Aires",
    "slug": "skydive-center-buenos-aires",
    "latitude": -34.8949424473973,
    "longitude": -57.969360351562,
    "city": null,
    "state": null,
    "country": "Argentina",
    "telephone": "011 15-5955-6060",
    "email": "contacto@skydivecenter.com.ar",
    "website": null,
    "source": "scraped"
  },
  {
    "id": "aeroatelier-skydive-la-cumbre",
    "name": "Aeroatelier Skydive La Cumbre",
    "slug": "aeroatelier-skydive-la-cumbre",
    "latitude": -31.0070342822449,
    "longitude": -64.527854919434,
    "city": null,
    "state": null,
    "country": "Argentina",
    "telephone": "+54 9 3548 63-9713",
    "email": "hangar3@aeroatelier.com",
    "website": null,
    "source": "scraped"
  },
  {
    "id": "aeroclub-canada-de-gomez",
    "name": "Aeroclub Cañada de Gomez",
    "slug": "aeroclub-canada-de-gomez",
    "latitude": -32.8138651179679,
    "longitude": -61.367053985596,
    "city": null,
    "state": null,
    "country": "Argentina",
    "telephone": "54 - 03471-437330 / 422472",
    "email": null,
    "website": null,
    "source": "scraped"
  },
  {
    "id": "aeroclub-casilda",
    "name": "Aeroclub Casilda",
    "slug": "aeroclub-casilda",
    "latitude": -33.065650536534,
    "longitude": -61.205434799194,
    "city": null,
    "state": null,
    "country": "Argentina",
    "telephone": "03464-424692",
    "email": "info@aeroclubcasilda.com",
    "website": null,
    "source": "scraped"
  },
  {
    "id": "aero-club-san-francisco",
    "name": "Aero Club San Francisco",
    "slug": "aero-club-san-francisco",
    "latitude": -31.420185380975,
    "longitude": -62.122514247895,
    "city": null,
    "state": null,
    "country": "Argentina",
    "telephone": "+54 3564 44-0615",
    "email": "aeroclubsanfrancisco@gmail.com",
    "website": null,
    "source": "scraped"
  },
  {
    "id": "aeroclub-san-juan",
    "name": "Aeroclub San Juan",
    "slug": "aeroclub-san-juan",
    "latitude": -31.603363,
    "longitude": -68.546429,
    "city": null,
    "state": null,
    "country": "Argentina",
    "telephone": "+54 (264) 4240219",
    "email": "aeroclubsanjuan@gmail.com",
    "website": null,
    "source": "scraped"
  },
  {
    "id": "aeroclub-mar-del-plata",
    "name": "Aeroclub Mar del Plata",
    "slug": "aeroclub-mar-del-plata",
    "latitude": -38.008383,
    "longitude": -57.672339,
    "city": null,
    "state": null,
    "country": "Argentina",
    "telephone": "54 -0223 464 2151 / 4641960",
    "email": "info@aeroclubmardelplata.com.ar",
    "website": "https://aeroclubmardelplata.com.ar",
    "source": "scraped"
  },
  {
    "id": "a-ts-argentina-tandem-skydiving",
    "name": "A-TS Argentina Tandem Skydiving",
    "slug": "a-ts-argentina-tandem-skydiving",
    "latitude": -31.9650516243925,
    "longitude": -64.563710689545,
    "city": null,
    "state": null,
    "country": "Argentina",
    "telephone": "03546-15-404553",
    "email": null,
    "website": null,
    "source": "scraped"
  },
  {
    "id": "buenos-aires-skydive",
    "name": "Buenos Aires Skydive",
    "slug": "buenos-aires-skydive",
    "latitude": -35.540024,
    "longitude": -58.048597,
    "city": null,
    "state": null,
    "country": "Argentina",
    "telephone": "54 (011) 15 4 422 2220",
    "email": "contacto@skydivecenter.com.ar",
    "website": null,
    "source": "scraped"
  },
  {
    "id": "brigada-de-paracaidismo-aero-club-bell-ville",
    "name": "Brigada de Paracaidismo Aero Club Bell Ville",
    "slug": "brigada-de-paracaidismo-aero-club-bell-ville",
    "latitude": -32.659828,
    "longitude": -62.701745,
    "city": null,
    "state": null,
    "country": "Argentina",
    "telephone": "54 (3534) 426-746, 03537-15686148",
    "email": "aeroclubbv@hotmail.com.ar",
    "website": null,
    "source": "scraped"
  },
  {
    "id": "cepac-cordoba-capital",
    "name": "CEPAC (Cordoba capital)",
    "slug": "cepac-cordoba-capital",
    "latitude": -31.488082,
    "longitude": -64.140867,
    "city": null,
    "state": null,
    "country": "Argentina",
    "telephone": "+54 (9) 3516878471 (movil)",
    "email": "info@cordobaskydive.com",
    "website": null,
    "source": "scraped"
  },
  {
    "id": "centro-de-aviacion-civil-san-juan",
    "name": "Centro de Aviacion Civil San Juan",
    "slug": "centro-de-aviacion-civil-san-juan",
    "latitude": -31.6054766759669,
    "longitude": -68.54790687561,
    "city": null,
    "state": null,
    "country": "Argentina",
    "telephone": "54 264 4424 0219",
    "email": null,
    "website": "https://paracaidismo.org.ar",
    "source": "scraped"
  },
  {
    "id": "flyranch",
    "name": "Flyranch",
    "slug": "flyranch",
    "latitude": -35.094771232462,
    "longitude": -58.084545135498,
    "city": null,
    "state": null,
    "country": "Argentina",
    "telephone": "011-15-5249-9282",
    "email": null,
    "website": "https://www.flyranch.com.ar/",
    "source": "scraped"
  },
  {
    "id": "paracaidismo-mar-del-plata",
    "name": "Paracaidismo Mar Del Plata",
    "slug": "paracaidismo-mar-del-plata",
    "latitude": -38.00899,
    "longitude": -57.61344,
    "city": null,
    "state": null,
    "country": "Argentina",
    "telephone": "+54 9 223 539-2123",
    "email": "paracaidismomardelplata@gmail.com",
    "website": null,
    "source": "scraped"
  },
  {
    "id": "paracaidismo-flyranch",
    "name": "Paracaidismo FlyRanch",
    "slug": "paracaidismo-flyranch",
    "latitude": -35.096186,
    "longitude": -58.0798,
    "city": null,
    "state": null,
    "country": "Argentina",
    "telephone": "54-11-5415-5415",
    "email": "info@flyranch.com",
    "website": null,
    "source": "scraped"
  },
  {
    "id": "paracaidismo-pergamino",
    "name": "Paracaidismo Pergamino",
    "slug": "paracaidismo-pergamino",
    "latitude": -33.919417,
    "longitude": -60.648974,
    "city": null,
    "state": null,
    "country": "Argentina",
    "telephone": "54 (2477) 15-567-950 / (11) 15-5215-5504",
    "email": "acpparacaidismo@aol.com",
    "website": null,
    "source": "scraped"
  },
  {
    "id": "paracaidismo-tandil",
    "name": "Paracaidismo Tandil",
    "slug": "paracaidismo-tandil",
    "latitude": -37.263772,
    "longitude": -59.091323,
    "city": null,
    "state": null,
    "country": "Argentina",
    "telephone": null,
    "email": null,
    "website": null,
    "source": "scraped"
  },
  {
    "id": "skydive-chascomus",
    "name": "Skydive Chascomus",
    "slug": "skydive-chascomus",
    "latitude": -35.541264,
    "longitude": -58.048645,
    "city": null,
    "state": null,
    "country": "Argentina",
    "telephone": "+5491157960214",
    "email": "info@paracaidismochascomus.com",
    "website": "https://skydivechascomus.com",
    "source": "scraped"
  },
  {
    "id": "paraclub-reconquista",
    "name": "Paraclub Reconquista",
    "slug": "paraclub-reconquista",
    "latitude": -29.105706,
    "longitude": -59.657063,
    "city": null,
    "state": null,
    "country": "Argentina",
    "telephone": "03482-421770",
    "email": "paraclub@interlap.com.ar",
    "website": null,
    "source": "scraped"
  },
  {
    "id": "skydive-alta-gracia",
    "name": "Skydive Alta Gracia",
    "slug": "skydive-alta-gracia",
    "latitude": -31.6574123645198,
    "longitude": -64.395267963409,
    "city": null,
    "state": null,
    "country": "Argentina",
    "telephone": "00543513487628",
    "email": null,
    "website": null,
    "source": "scraped"
  },
  {
    "id": "skydive-mendoza",
    "name": "Skydive Mendoza",
    "slug": "skydive-mendoza",
    "latitude": -31.60434,
    "longitude": -68.54414,
    "city": null,
    "state": null,
    "country": "Argentina",
    "telephone": "+549 (0261) 153-175482",
    "email": null,
    "website": null,
    "source": "scraped"
  },
  {
    "id": "skydive-lobos-club-escuela-de-paracaidismo-argentinos",
    "name": "Skydive Lobos - Club Escuela de Paracaidismo Argentinos",
    "slug": "skydive-lobos-club-escuela-de-paracaidismo-argentinos",
    "latitude": -35.210845,
    "longitude": -59.136696,
    "city": null,
    "state": null,
    "country": "Argentina",
    "telephone": "54 (02227) 15 614891",
    "email": "info@skydivelobos.com.ar",
    "website": null,
    "source": "scraped"
  },
  {
    "id": "skydive-patagonia",
    "name": "Skydive Patagonia",
    "slug": "skydive-patagonia",
    "latitude": -41.096949,
    "longitude": -71.177772,
    "city": null,
    "state": null,
    "country": "Argentina",
    "telephone": "54 (2944) 425-768",
    "email": "skydivepatagonia@yahoo.com",
    "website": null,
    "source": "scraped"
  },
  {
    "id": "skydive-tucuman",
    "name": "Skydive Tucuman",
    "slug": "skydive-tucuman",
    "latitude": -26.795714743929,
    "longitude": -65.309630334377,
    "city": null,
    "state": null,
    "country": "Argentina",
    "telephone": "+54 381 637-4010",
    "email": "marcostatocarrero@gmail.com",
    "website": null,
    "source": "scraped"
  },
  {
    "id": "tolosa",
    "name": "Tolosa",
    "slug": "tolosa",
    "latitude": -34.874454,
    "longitude": -57.961376,
    "city": null,
    "state": null,
    "country": "Argentina",
    "telephone": "54 221 4837660",
    "email": "info@ceplp.com.ar",
    "website": null,
    "source": "scraped"
  },
  {
    "id": "club-de-paracaidismo-y-aerodeportes-santa-fe",
    "name": "Club de Paracaidismo y Aerodeportes Santa Fe",
    "slug": "club-de-paracaidismo-y-aerodeportes-santa-fe",
    "latitude": -31.472999,
    "longitude": -60.840643,
    "city": null,
    "state": null,
    "country": "Argentina",
    "telephone": "+54 934 261 195 76",
    "email": "info@paracaidismosantafe.com.ar",
    "website": "https://paracaidismosantafe.com.ar/",
    "source": "scraped"
  },
  {
    "id": "skydive-buenos-aires",
    "name": "Skydive Buenos Aires",
    "slug": "skydive-buenos-aires",
    "latitude": -35.213262,
    "longitude": -59.132754,
    "city": null,
    "state": null,
    "country": "Argentina",
    "telephone": "0800-8888-759",
    "email": null,
    "website": "https://www.skydivebuenosaires.com",
    "source": "scraped"
  },
  {
    "id": "skydive-bahia",
    "name": "Skydive Bahia",
    "slug": "skydive-bahia",
    "latitude": -38.6734490229425,
    "longitude": -62.355222702026,
    "city": null,
    "state": null,
    "country": "Argentina",
    "telephone": "+549 291 504 7343",
    "email": "skydivebahiablanca@gmail.com",
    "website": "https://www.paracaidismobahia.com/",
    "source": "scraped"
  },
  {
    "id": "skydive-rosario",
    "name": "Skydive Rosario",
    "slug": "skydive-rosario",
    "latitude": -33.0522222558204,
    "longitude": -60.600712001324,
    "city": null,
    "state": null,
    "country": "Argentina",
    "telephone": "+5493416201144",
    "email": null,
    "website": "https://www.rosarioparacaidismo.com",
    "source": "scraped"
  },
  {
    "id": "skydive-temora",
    "name": "Skydive Temora",
    "slug": "skydive-temora",
    "latitude": -34.434007,
    "longitude": 147.537619,
    "city": null,
    "state": null,
    "country": "Australia",
    "telephone": "0269 780 137",
    "email": "sales@skydivetemora.com.au",
    "website": null,
    "source": "scraped"
  },
  {
    "id": "skydive-nagambie",
    "name": "Skydive Nagambie",
    "slug": "skydive-nagambie",
    "latitude": -36.8079747350626,
    "longitude": 505.16910731792,
    "city": null,
    "state": null,
    "country": "Australia",
    "telephone": "03 57 94 1466",
    "email": "skydivenagambie@yahoo.com",
    "website": "https://skydivenagambie.com",
    "source": "scraped"
  },
  {
    "id": "skydive-central-queensland",
    "name": "Skydive Central Queensland",
    "slug": "skydive-central-queensland",
    "latitude": -23.817781,
    "longitude": 150.815855,
    "city": null,
    "state": null,
    "country": "Australia",
    "telephone": "07 3314 3664",
    "email": null,
    "website": null,
    "source": "scraped"
  },
  {
    "id": "skydive-sydney-north-coast",
    "name": "Skydive Sydney North Coast",
    "slug": "skydive-sydney-north-coast",
    "latitude": -33.298141,
    "longitude": 151.427606,
    "city": null,
    "state": null,
    "country": "Australia",
    "telephone": "+61 (0) 2 6684 1323",
    "email": null,
    "website": null,
    "source": "scraped"
  },
  {
    "id": "sunshine-coast-skydivers",
    "name": "Sunshine Coast Skydivers",
    "slug": "sunshine-coast-skydivers",
    "latitude": -26.79775,
    "longitude": 153.11008,
    "city": null,
    "state": null,
    "country": "Australia",
    "telephone": "+61 7 5437 0211",
    "email": null,
    "website": null,
    "source": "scraped"
  },
  {
    "id": "commando-skydivers",
    "name": "Commando Skydivers",
    "slug": "commando-skydivers",
    "latitude": -38.2141763289769,
    "longitude": 146.46908283234,
    "city": null,
    "state": null,
    "country": "Australia",
    "telephone": "1300 555 956 (within Victoria only)",
    "email": "commandos@skydiveworld.com",
    "website": "https://commandoskydivers.com.au",
    "source": "scraped"
  },
  {
    "id": "skydive-the-beach-and-beyond-byron-bay",
    "name": "Skydive the Beach and Beyond Byron Bay",
    "slug": "skydive-the-beach-and-beyond-byron-bay",
    "latitude": -28.837639,
    "longitude": 153.556291,
    "city": null,
    "state": null,
    "country": "Australia",
    "telephone": "1300 66 3634",
    "email": null,
    "website": "https://www.skydive.com.au",
    "source": "scraped"
  },
  {
    "id": "willowbank",
    "name": "Willowbank",
    "slug": "willowbank",
    "latitude": -27.7227018427533,
    "longitude": 152.64451503754,
    "city": null,
    "state": null,
    "country": "Australia",
    "telephone": "[+61] 7 5464-6111",
    "email": null,
    "website": null,
    "source": "scraped"
  },
  {
    "id": "great-ocean-road-skydiving-centre",
    "name": "Great Ocean Road Skydiving Centre",
    "slug": "great-ocean-road-skydiving-centre",
    "latitude": -38.2967,
    "longitude": 144.365829,
    "city": null,
    "state": null,
    "country": "Australia",
    "telephone": "0413 863 929",
    "email": "tps@skydivingassoc.com.au",
    "website": null,
    "source": "scraped"
  },
  {
    "id": "south-australian-sport-parachute-club",
    "name": "South Australian Sport Parachute Club",
    "slug": "south-australian-sport-parachute-club",
    "latitude": -35.2276723549358,
    "longitude": 138.7353515625,
    "city": null,
    "state": null,
    "country": "Australia",
    "telephone": "++61 422 469 608",
    "email": "erikawiz@hotmail.com",
    "website": "https://saspc.asn.au/",
    "source": "scraped"
  },
  {
    "id": "tandem-cairns",
    "name": "Tandem Cairns",
    "slug": "tandem-cairns",
    "latitude": -17.562855145847,
    "longitude": 146.00831135095,
    "city": null,
    "state": null,
    "country": "Australia",
    "telephone": "+61 (07) 4015 2466",
    "email": "support@tandemcairns.com.au",
    "website": null,
    "source": "scraped"
  },
  {
    "id": "skydive-the-beach-and-beyond-central-coast",
    "name": "Skydive the Beach and Beyond Central Coast",
    "slug": "skydive-the-beach-and-beyond-central-coast",
    "latitude": -33.239581,
    "longitude": 151.432686,
    "city": null,
    "state": null,
    "country": "Australia",
    "telephone": "1300 663 634",
    "email": null,
    "website": "https://www.skydive.com.au",
    "source": "scraped"
  },
  {
    "id": "skydive-the-beach-and-beyond-perth",
    "name": "Skydive the Beach and Beyond Perth",
    "slug": "skydive-the-beach-and-beyond-perth",
    "latitude": -32.097011,
    "longitude": 115.878822,
    "city": null,
    "state": null,
    "country": "Australia",
    "telephone": "1300 663 634",
    "email": null,
    "website": "https://www.skydive.com.au",
    "source": "scraped"
  },
  {
    "id": "newcastle-sport-parachute-club-elderslie",
    "name": "Newcastle Sport Parachute Club (Elderslie)",
    "slug": "newcastle-sport-parachute-club-elderslie",
    "latitude": -32.601148,
    "longitude": 151.343002,
    "city": null,
    "state": null,
    "country": "Australia",
    "telephone": "+612 4938 1040",
    "email": "jennisongw@bigpond.com",
    "website": "https://www.skydivenewcastle.com",
    "source": "scraped"
  },
  {
    "id": "skydive-byron-bay",
    "name": "Skydive Byron Bay",
    "slug": "skydive-byron-bay",
    "latitude": -28.5953742923499,
    "longitude": 153.55110168457,
    "city": null,
    "state": null,
    "country": "Australia",
    "telephone": "(02) 6684 1323",
    "email": null,
    "website": null,
    "source": "scraped"
  },
  {
    "id": "skydive-the-beach-great-ocean-road",
    "name": "Skydive the Beach Great Ocean Road",
    "slug": "skydive-the-beach-great-ocean-road",
    "latitude": -38.2594750126615,
    "longitude": 144.43107604981,
    "city": null,
    "state": null,
    "country": "Australia",
    "telephone": "0399237799",
    "email": null,
    "website": null,
    "source": "scraped"
  },
  {
    "id": "skydive-canberra",
    "name": "Skydive Canberra",
    "slug": "skydive-canberra",
    "latitude": -35.3030079588206,
    "longitude": 149.18429374695,
    "city": null,
    "state": null,
    "country": "Australia",
    "telephone": "+61 1300 185 180",
    "email": "fun@skydiveoz.com.au",
    "website": null,
    "source": "scraped"
  },
  {
    "id": "skydive-townsville",
    "name": "Skydive Townsville",
    "slug": "skydive-townsville",
    "latitude": -19.255725,
    "longitude": 146.815082,
    "city": null,
    "state": null,
    "country": "Australia",
    "telephone": "+61 (07) 4721 4721",
    "email": "info@skydivetownsville.com.au",
    "website": "https://www.skydivetownsville.com/",
    "source": "scraped"
  },
  {
    "id": "adrenalin-skydive",
    "name": "Adrenalin Skydive",
    "slug": "adrenalin-skydive",
    "latitude": -34.8085830762667,
    "longitude": 149.72923278809,
    "city": null,
    "state": null,
    "country": "Australia",
    "telephone": "0422585867",
    "email": null,
    "website": "https://www.askydive.com.au",
    "source": "scraped"
  },
  {
    "id": "adelaide-skydiving",
    "name": "Adelaide Skydiving",
    "slug": "adelaide-skydiving",
    "latitude": -34.5178726140166,
    "longitude": 138.42395782471,
    "city": null,
    "state": null,
    "country": "Australia",
    "telephone": "08 82888420",
    "email": null,
    "website": null,
    "source": "scraped"
  },
  {
    "id": "adventure-air-skydiving",
    "name": "Adventure Air Skydiving",
    "slug": "adventure-air-skydiving",
    "latitude": -34.518,
    "longitude": 138.42367,
    "city": null,
    "state": null,
    "country": "Australia",
    "telephone": null,
    "email": "jump@adventureair.com.au",
    "website": null,
    "source": "scraped"
  },
  {
    "id": "aerial-skydives",
    "name": "Aerial Skydives",
    "slug": "aerial-skydives",
    "latitude": -38.2107369350385,
    "longitude": 146.47384643555,
    "city": null,
    "state": null,
    "country": "Australia",
    "telephone": "0408070991",
    "email": null,
    "website": null,
    "source": "scraped"
  },
  {
    "id": "hillman-farm-skydivers",
    "name": "Hillman Farm Skydivers",
    "slug": "hillman-farm-skydivers",
    "latitude": -33.264006,
    "longitude": 116.820722,
    "city": null,
    "state": null,
    "country": "Australia",
    "telephone": "+61 0466 725 669",
    "email": "bigbrucehillmanskydivers@hotmail.com",
    "website": null,
    "source": "scraped"
  },
  {
    "id": "skydive-geronimo-2",
    "name": "Skydive Geronimo",
    "slug": "skydive-geronimo-2",
    "latitude": -33.6870620650209,
    "longitude": 115.39712905884,
    "city": null,
    "state": null,
    "country": "Australia",
    "telephone": "1300 449 669",
    "email": null,
    "website": "https://skydivegeronimo.com.au/",
    "source": "scraped"
  },
  {
    "id": "brisbane-skydiving-centre",
    "name": "Brisbane Skydiving Centre",
    "slug": "brisbane-skydiving-centre",
    "latitude": -27.722597,
    "longitude": 152.644783,
    "city": null,
    "state": null,
    "country": "Australia",
    "telephone": "+61 7 3333 2077",
    "email": "info@brisbaneskydive.com.au",
    "website": null,
    "source": "scraped"
  },
  {
    "id": "coastal-skydive",
    "name": "Coastal Skydive",
    "slug": "coastal-skydive",
    "latitude": -35.475903,
    "longitude": 138.745319,
    "city": null,
    "state": null,
    "country": "Australia",
    "telephone": "61 448 148 490",
    "email": "jump@coastalskydive.com.au",
    "website": "https://coastalskydive.com.au/",
    "source": "scraped"
  },
  {
    "id": "darwin-parachute-club",
    "name": "Darwin Parachute Club",
    "slug": "darwin-parachute-club",
    "latitude": -13.052076,
    "longitude": 131.026289,
    "city": null,
    "state": null,
    "country": "Australia",
    "telephone": "08 89760036",
    "email": "alibates@octa4.net.au",
    "website": "https://skydiveterritory.com.au",
    "source": "scraped"
  },
  {
    "id": "coffs-skydivers",
    "name": "Coffs Skydivers",
    "slug": "coffs-skydivers",
    "latitude": -30.31514,
    "longitude": 153.117101,
    "city": null,
    "state": null,
    "country": "Australia",
    "telephone": "(02) 66511167",
    "email": "jump@coffsskydivers.com.au",
    "website": "https://www.coffsskydivers.com.au/",
    "source": "scraped"
  },
  {
    "id": "just-jump-skydive",
    "name": "Just Jump Skydive",
    "slug": "just-jump-skydive",
    "latitude": -32.6026147387309,
    "longitude": 151.19440555573,
    "city": null,
    "state": null,
    "country": "Australia",
    "telephone": "+61 (0) 2 4322 9884",
    "email": null,
    "website": null,
    "source": "scraped"
  },
  {
    "id": "mackay-skydive",
    "name": "Mackay Skydive",
    "slug": "mackay-skydive",
    "latitude": -21.172604,
    "longitude": 149.182094,
    "city": null,
    "state": null,
    "country": "Australia",
    "telephone": "(+61) 04 5821 3523",
    "email": "info@mackayskydive.com.au",
    "website": null,
    "source": "scraped"
  },
  {
    "id": "melbourne-skydive-centre",
    "name": "Melbourne Skydive Centre",
    "slug": "melbourne-skydive-centre",
    "latitude": -38.25901,
    "longitude": 144.42597,
    "city": null,
    "state": null,
    "country": "Australia",
    "telephone": "1300 73 44 71",
    "email": null,
    "website": null,
    "source": "scraped"
  },
  {
    "id": "skydive-city-melbourne",
    "name": "Skydive City - Melbourne",
    "slug": "skydive-city-melbourne",
    "latitude": -38.258813,
    "longitude": 144.426923,
    "city": null,
    "state": null,
    "country": "Australia",
    "telephone": "+61 3 5254 1467",
    "email": "info@skydivecity.com.au",
    "website": null,
    "source": "scraped"
  },
  {
    "id": "skydive-adelaide",
    "name": "Skydive Adelaide",
    "slug": "skydive-adelaide",
    "latitude": -35.301249,
    "longitude": 139.270498,
    "city": null,
    "state": null,
    "country": "Australia",
    "telephone": "61411875867",
    "email": "aljumps@chariot.net.au",
    "website": null,
    "source": "scraped"
  },
  {
    "id": "redcliffe-city-skydiving",
    "name": "Redcliffe City Skydiving",
    "slug": "redcliffe-city-skydiving",
    "latitude": -27.394214,
    "longitude": 153.12183,
    "city": null,
    "state": null,
    "country": "Australia",
    "telephone": "1300788555",
    "email": "jump@skydiveredcliffe.com.au",
    "website": null,
    "source": "scraped"
  },
  {
    "id": "sa-skydiving-murray-bridge",
    "name": "SA Skydiving / Murray Bridge",
    "slug": "sa-skydiving-murray-bridge",
    "latitude": -35.30556,
    "longitude": 139.268414,
    "city": null,
    "state": null,
    "country": "Australia",
    "telephone": "08 8272 7888",
    "email": "skydive@skydiving.com.au",
    "website": "https://saskydiving.com.au/",
    "source": "scraped"
  },
  {
    "id": "skydive-hervey-bay",
    "name": "Skydive Hervey Bay",
    "slug": "skydive-hervey-bay",
    "latitude": -25.32282,
    "longitude": 152.88981,
    "city": null,
    "state": null,
    "country": "Australia",
    "telephone": "0458064703",
    "email": null,
    "website": "https://skydiveherveybay.com.au",
    "source": "scraped"
  },
  {
    "id": "skydive-kalbarri",
    "name": "Skydive Kalbarri",
    "slug": "skydive-kalbarri",
    "latitude": -27.707953,
    "longitude": 114.166694,
    "city": null,
    "state": null,
    "country": "Australia",
    "telephone": "0400 355 730",
    "email": null,
    "website": null,
    "source": "scraped"
  },
  {
    "id": "skydive-maitland",
    "name": "Skydive Maitland",
    "slug": "skydive-maitland",
    "latitude": -35.4606699514953,
    "longitude": 149.765625,
    "city": null,
    "state": null,
    "country": "Australia",
    "telephone": "0425 200 185",
    "email": null,
    "website": null,
    "source": "scraped"
  },
  {
    "id": "skydive-nowra",
    "name": "Skydive Nowra",
    "slug": "skydive-nowra",
    "latitude": -34.938193,
    "longitude": 150.55625,
    "city": null,
    "state": null,
    "country": "Australia",
    "telephone": "+61419446904",
    "email": null,
    "website": null,
    "source": "scraped"
  },
  {
    "id": "skydive-oz",
    "name": "Skydive Oz",
    "slug": "skydive-oz",
    "latitude": -35.9032576306964,
    "longitude": 150.13807912695,
    "city": null,
    "state": null,
    "country": "Australia",
    "telephone": "1300185180",
    "email": "fun@skydiveoz.com.au",
    "website": null,
    "source": "scraped"
  },
  {
    "id": "skydive-uluru",
    "name": "Skydive Uluru",
    "slug": "skydive-uluru",
    "latitude": -25.2580421653623,
    "longitude": 130.99754333496,
    "city": null,
    "state": null,
    "country": "Australia",
    "telephone": "+61 450 337 951",
    "email": "skydiveayersrock@gmail.com",
    "website": null,
    "source": "scraped"
  },
  {
    "id": "skydive-victoria",
    "name": "Skydive Victoria",
    "slug": "skydive-victoria",
    "latitude": -36.068414,
    "longitude": 146.954539,
    "city": null,
    "state": null,
    "country": "Australia",
    "telephone": "0415704748",
    "email": null,
    "website": null,
    "source": "scraped"
  },
  {
    "id": "sydney-skydivers",
    "name": "Sydney Skydivers",
    "slug": "sydney-skydivers",
    "latitude": -34.223053,
    "longitude": 150.670251,
    "city": null,
    "state": null,
    "country": "Australia",
    "telephone": null,
    "email": "admin@Sydneyskydivers.com.au",
    "website": null,
    "source": "scraped"
  },
  {
    "id": "sydney-skydiving-centre",
    "name": "Sydney Skydiving Centre",
    "slug": "sydney-skydiving-centre",
    "latitude": -33.922652,
    "longitude": 150.990234,
    "city": null,
    "state": null,
    "country": "Australia",
    "telephone": "+61 2 9791 9155 (Office) +61 2 4630 9265",
    "email": "russell@sydneyskydivers.com.au",
    "website": null,
    "source": "scraped"
  },
  {
    "id": "skydive-the-beach-and-beyond-hunter-valley",
    "name": "Skydive the Beach and Beyond Hunter Valley",
    "slug": "skydive-the-beach-and-beyond-hunter-valley",
    "latitude": -32.601156,
    "longitude": 151.342893,
    "city": null,
    "state": null,
    "country": "Australia",
    "telephone": "1300 663 634",
    "email": null,
    "website": "https://skydive.com.au",
    "source": "scraped"
  },
  {
    "id": "skydive-elderslie-hunter-valley",
    "name": "Skydive Elderslie Hunter valley",
    "slug": "skydive-elderslie-hunter-valley",
    "latitude": -32.6016691681001,
    "longitude": 151.34336471558,
    "city": null,
    "state": null,
    "country": "Australia",
    "telephone": null,
    "email": null,
    "website": "https://nspc.net.au",
    "source": "scraped"
  },
  {
    "id": "skydive-the-beach-and-beyond-rockingham",
    "name": "Skydive the Beach and Beyond Rockingham",
    "slug": "skydive-the-beach-and-beyond-rockingham",
    "latitude": -32.510268,
    "longitude": 115.836178,
    "city": null,
    "state": null,
    "country": "Australia",
    "telephone": "1300 663 634",
    "email": null,
    "website": "https://skydive.com.au",
    "source": "scraped"
  },
  {
    "id": "the-swoop-farm-pimpama",
    "name": "The Swoop Farm - Pimpama",
    "slug": "the-swoop-farm-pimpama",
    "latitude": -27.815982,
    "longitude": 153.349885,
    "city": null,
    "state": null,
    "country": "Australia",
    "telephone": "61 7 55462877",
    "email": null,
    "website": null,
    "source": "scraped"
  },
  {
    "id": "wickham-skydivers",
    "name": "Wickham Skydivers",
    "slug": "wickham-skydivers",
    "latitude": -20.673199,
    "longitude": 117.126933,
    "city": null,
    "state": null,
    "country": "Australia",
    "telephone": "61 417 011 000",
    "email": "petesparachuting@yahoo.com.au",
    "website": null,
    "source": "scraped"
  },
  {
    "id": "skydive-the-beach-and-beyond-sydney-wollongong",
    "name": "Skydive the Beach and Beyond Sydney-Wollongong",
    "slug": "skydive-the-beach-and-beyond-sydney-wollongong",
    "latitude": -34.41053,
    "longitude": 150.89992,
    "city": null,
    "state": null,
    "country": "Australia",
    "telephone": "1300 663 634",
    "email": null,
    "website": "https://skydive.com.au",
    "source": "scraped"
  },
  {
    "id": "caboolture",
    "name": "Caboolture",
    "slug": "caboolture",
    "latitude": -27.078111,
    "longitude": 152.985035,
    "city": null,
    "state": null,
    "country": "Australia",
    "telephone": "0414704415",
    "email": "imc@sun.big.net.au",
    "website": "https://skydivecaboolture.com/",
    "source": "scraped"
  },
  {
    "id": "far-north-freefall-club-inc",
    "name": "Far North Freefall Club Inc",
    "slug": "far-north-freefall-club-inc",
    "latitude": -17.929377,
    "longitude": 145.93707,
    "city": null,
    "state": null,
    "country": "Australia",
    "telephone": "07 4033 5914",
    "email": "issydore@hotmail.com",
    "website": "https://apf.com.au/dropzones/far-north-freefall-inc/",
    "source": "scraped"
  },
  {
    "id": "skydive-ramblers",
    "name": "Skydive Ramblers",
    "slug": "skydive-ramblers",
    "latitude": -27.070144,
    "longitude": 152.382499,
    "city": null,
    "state": null,
    "country": "Australia",
    "telephone": "+61 7 54231159",
    "email": "skydive@ramblers.com.au",
    "website": "https://www.ramblers.com.au",
    "source": "scraped"
  },
  {
    "id": "skydive-jurien-bay",
    "name": "Skydive Jurien Bay",
    "slug": "skydive-jurien-bay",
    "latitude": -30.30095,
    "longitude": 115.05561,
    "city": null,
    "state": null,
    "country": "Australia",
    "telephone": "08 9652 1320",
    "email": null,
    "website": "https://skydivejurienbay.com",
    "source": "scraped"
  },
  {
    "id": "the-parachute-school-skydive-euroa",
    "name": "The Parachute School - Skydive Euroa",
    "slug": "the-parachute-school-skydive-euroa",
    "latitude": -36.7431141087276,
    "longitude": 145.51284313202,
    "city": null,
    "state": null,
    "country": "Australia",
    "telephone": "1300 302 907",
    "email": null,
    "website": "https://www.skydivingmelbourne.com.au/",
    "source": "scraped"
  },
  {
    "id": "wa-skydiving-academy",
    "name": "WA Skydiving Academy",
    "slug": "wa-skydiving-academy",
    "latitude": -32.085486,
    "longitude": 115.884078,
    "city": null,
    "state": null,
    "country": "Australia",
    "telephone": "+61 8 9227 6066",
    "email": "skydive@waskydiving.com.au",
    "website": "https://waskydiving.com.au/",
    "source": "scraped"
  },
  {
    "id": "lowg-1oefc-graz",
    "name": "LOWG - 1.OEFC Graz",
    "slug": "lowg-1oefc-graz",
    "latitude": 46.9904435391961,
    "longitude": 15.433720350265,
    "city": null,
    "state": null,
    "country": "Austria",
    "telephone": null,
    "email": null,
    "website": "https://oefc.at",
    "source": "scraped"
  },
  {
    "id": "austria-weisse-moewe-wels",
    "name": "austria weisse moewe wels",
    "slug": "austria-weisse-moewe-wels",
    "latitude": 48.177149,
    "longitude": 14.040364,
    "city": null,
    "state": null,
    "country": "Austria",
    "telephone": "+43/7242-26499-10",
    "email": "wmw@aon.at",
    "website": null,
    "source": "scraped"
  },
  {
    "id": "jump-club-krems",
    "name": "Jump Club Krems",
    "slug": "jump-club-krems",
    "latitude": 48.445738,
    "longitude": 15.631266,
    "city": null,
    "state": null,
    "country": "Austria",
    "telephone": null,
    "email": null,
    "website": "https://fallschirmspringen-krems.at",
    "source": "scraped"
  },
  {
    "id": "impact-freefly",
    "name": "Impact Freefly",
    "slug": "impact-freefly",
    "latitude": 47.5853260478768,
    "longitude": 16.84684753418,
    "city": null,
    "state": null,
    "country": "Austria",
    "telephone": "00436508308377",
    "email": "h9952539@wu-wien.ac.at",
    "website": null,
    "source": "scraped"
  },
  {
    "id": "pink-skyvan-office",
    "name": "PINK Skyvan Office",
    "slug": "pink-skyvan-office",
    "latitude": 48.1489657681547,
    "longitude": 16.276330947876,
    "city": null,
    "state": null,
    "country": "Austria",
    "telephone": "0043 1 8898222",
    "email": "office@pink.at",
    "website": "https://pinkskyvan.com",
    "source": "scraped"
  },
  {
    "id": "skydive-krems",
    "name": "Skydive Krems",
    "slug": "skydive-krems",
    "latitude": 48.3927378665924,
    "longitude": 15.6005859375,
    "city": null,
    "state": null,
    "country": "Austria",
    "telephone": "+436643012377",
    "email": "info@fallschirmschule.at",
    "website": null,
    "source": "scraped"
  },
  {
    "id": "upcs-hohenems",
    "name": "UPCS Hohenems",
    "slug": "upcs-hohenems",
    "latitude": 47.3830016860072,
    "longitude": 9.696426987648,
    "city": null,
    "state": null,
    "country": "Austria",
    "telephone": "+43 5576 77320",
    "email": null,
    "website": "https://www.upcs.at",
    "source": "scraped"
  },
  {
    "id": "weisse-moewe-wels",
    "name": "Weisse Moewe Wels",
    "slug": "weisse-moewe-wels",
    "latitude": 48.177206,
    "longitude": 14.040363,
    "city": null,
    "state": null,
    "country": "Austria",
    "telephone": "+43-664-3445879",
    "email": null,
    "website": "https://www.skydive-wels.at",
    "source": "scraped"
  },
  {
    "id": "linz-hoersching",
    "name": "Linz Hörsching",
    "slug": "linz-hoersching",
    "latitude": 48.234369,
    "longitude": 14.191251,
    "city": null,
    "state": null,
    "country": "Austria",
    "telephone": "0043 664 3082743 or 0043 7221 64974",
    "email": "skydive@unionlinz.com",
    "website": "https://unionlinz.at",
    "source": "scraped"
  },
  {
    "id": "skydive-tirol",
    "name": "Skydive Tirol",
    "slug": "skydive-tirol",
    "latitude": 47.465036,
    "longitude": 11.950236,
    "city": null,
    "state": null,
    "country": "Austria",
    "telephone": "+43 664 3003634",
    "email": "info@skydive-tirol.com",
    "website": "https://www.skydive-tirol.com",
    "source": "scraped"
  },
  {
    "id": "hfsc-freistadt",
    "name": "HFSC-Freistadt",
    "slug": "hfsc-freistadt",
    "latitude": 48.513803,
    "longitude": 14.405894,
    "city": null,
    "state": null,
    "country": "Austria",
    "telephone": "+43 664 7965892",
    "email": "mailpoint@hfsc-freistadt.com",
    "website": "https://www.hfsc-freistadt.com",
    "source": "scraped"
  },
  {
    "id": "fsc-impact-skydive-in-austria",
    "name": "FSC-Impact Skydive in Austria",
    "slug": "fsc-impact-skydive-in-austria",
    "latitude": 47.582093,
    "longitude": 16.844592,
    "city": null,
    "state": null,
    "country": "Austria",
    "telephone": "00436641920790",
    "email": "info@fallschirmsprung.at",
    "website": "https://fallschirmsprung.at/",
    "source": "scraped"
  },
  {
    "id": "kaerntner-fallschirmspringer-club",
    "name": "Kärntner Fallschirmspringer Club",
    "slug": "kaerntner-fallschirmspringer-club",
    "latitude": 46.6422475232518,
    "longitude": 14.321022033691,
    "city": null,
    "state": null,
    "country": "Austria",
    "telephone": null,
    "email": null,
    "website": "https://www.fallschirmspringerclub-kaernten.at/",
    "source": "scraped"
  },
  {
    "id": "skydive-fuerstenfeld",
    "name": "Skydive Fürstenfeld",
    "slug": "skydive-fuerstenfeld",
    "latitude": 47.0619368626036,
    "longitude": 16.060981750488,
    "city": null,
    "state": null,
    "country": "Austria",
    "telephone": null,
    "email": "skydive.fuerstenfeld@utanet.at",
    "website": "https://www.freifall.at",
    "source": "scraped"
  },
  {
    "id": "skydive-punitz-freifallat",
    "name": "Skydive Punitz - freifall.at",
    "slug": "skydive-punitz-freifallat",
    "latitude": 47.1495719859106,
    "longitude": 16.314010620117,
    "city": null,
    "state": null,
    "country": "Austria",
    "telephone": null,
    "email": null,
    "website": "https://www.freifall.at",
    "source": "scraped"
  },
  {
    "id": "skydive-vienna",
    "name": "Skydive Vienna",
    "slug": "skydive-vienna",
    "latitude": 47.8292911090762,
    "longitude": 16.22371673584,
    "city": null,
    "state": null,
    "country": "Austria",
    "telephone": "+43 664 3013368",
    "email": "info@paraclub.at",
    "website": "https://www.skydive-vienna.com",
    "source": "scraped"
  },
  {
    "id": "rum-cay",
    "name": "Rum Cay",
    "slug": "rum-cay",
    "latitude": 23.651386,
    "longitude": -74.84467,
    "city": null,
    "state": null,
    "country": "Bahamas",
    "telephone": "954-822-5373",
    "email": null,
    "website": null,
    "source": "scraped"
  },
  {
    "id": "the-national-belorussain-aeroclub",
    "name": "The National Belorussain Aeroclub",
    "slug": "the-national-belorussain-aeroclub",
    "latitude": 53.964324,
    "longitude": 27.657299,
    "city": null,
    "state": null,
    "country": "Belarus",
    "telephone": "+375 17 2802898",
    "email": "insane13@mail.ru",
    "website": null,
    "source": "scraped"
  },
  {
    "id": "skydive-flanders-dz-moorsele",
    "name": "Skydive Flanders - DZ Moorsele",
    "slug": "skydive-flanders-dz-moorsele",
    "latitude": 50.8472477989332,
    "longitude": 3.1774520874023,
    "city": null,
    "state": null,
    "country": "Belgium",
    "telephone": "32 56 50 39 40",
    "email": "Moorsele@pcv.be",
    "website": "https://pcv.be",
    "source": "scraped"
  },
  {
    "id": "skydive-cerfontaine",
    "name": "Skydive Cerfontaine",
    "slug": "skydive-cerfontaine",
    "latitude": 50.1503722630104,
    "longitude": -355.61238214374,
    "city": null,
    "state": null,
    "country": "Belgium",
    "telephone": "+32 488 453 574",
    "email": null,
    "website": "https://skydivecerfontaine.be",
    "source": "scraped"
  },
  {
    "id": "skydive-center-spa",
    "name": "Skydive Center Spa",
    "slug": "skydive-center-spa",
    "latitude": 50.4875,
    "longitude": 5.910278,
    "city": null,
    "state": null,
    "country": "Belgium",
    "telephone": "+32-(0) 87-269 906",
    "email": "muellerjhg@skydivecenterspa.com",
    "website": "https://skydivecenterspa.com",
    "source": "scraped"
  },
  {
    "id": "skydive-flanders-dz-zwartberg",
    "name": "Skydive Flanders - DZ Zwartberg",
    "slug": "skydive-flanders-dz-zwartberg",
    "latitude": 51.0151046122365,
    "longitude": 5.5244064331055,
    "city": null,
    "state": null,
    "country": "Belgium",
    "telephone": "+32 89 842776",
    "email": "Zwartberg@pcv.be",
    "website": "https://pcv.be",
    "source": "scraped"
  },
  {
    "id": "cerps-namur",
    "name": "CERPS Namur",
    "slug": "cerps-namur",
    "latitude": 50.488191,
    "longitude": 4.769814,
    "city": null,
    "state": null,
    "country": "Belgium",
    "telephone": null,
    "email": "info@paraclubnamur.be",
    "website": "https://paraclubnamur.be/en",
    "source": "scraped"
  },
  {
    "id": "skydive-flanders-dz-schaffen",
    "name": "Skydive Flanders - DZ Schaffen",
    "slug": "skydive-flanders-dz-schaffen",
    "latitude": 51.003979810396,
    "longitude": 5.0706195831299,
    "city": null,
    "state": null,
    "country": "Belgium",
    "telephone": "32-13-33.75.43",
    "email": "Schaffen@pcv.be",
    "website": "https://www.pcv.be",
    "source": "scraped"
  },
  {
    "id": "skydive-antwerp",
    "name": "Skydive Antwerp",
    "slug": "skydive-antwerp",
    "latitude": 51.3021901687843,
    "longitude": 4.3911297447053,
    "city": null,
    "state": null,
    "country": "Belgium",
    "telephone": null,
    "email": "skydivehoevenen@gmail.com",
    "website": "https://www.skydive-antwerp.com",
    "source": "scraped"
  },
  {
    "id": "skydive-bolivia",
    "name": "Skydive Bolivia",
    "slug": "skydive-bolivia",
    "latitude": -17.2185,
    "longitude": -63.26756,
    "city": null,
    "state": null,
    "country": "Bolivia",
    "telephone": "+1-754-423-5265 , +591 71620407",
    "email": "skydivebolivia@gmail.com",
    "website": null,
    "source": "scraped"
  },
  {
    "id": "asociacion-departament-al-de-paracaidismo-deportivo-de-cochabamba-adpdc",
    "name": "Asociacion Departament Al De ParacaidIsmo DeportIvo de Cochabamba \"ADPDC\"",
    "slug": "asociacion-departament-al-de-paracaidismo-deportivo-de-cochabamba-adpdc",
    "latitude": -17.426417642889,
    "longitude": -66.168411970138,
    "city": null,
    "state": null,
    "country": "Bolivia",
    "telephone": "77920323",
    "email": "paracaidismocbba@hotmail.com",
    "website": null,
    "source": "scraped"
  },
  {
    "id": "asociacion-departamental-de-paracaidismo-deportivo-de-cochabamba-adpdc",
    "name": "ASOCIACION DEPARTAMENTAL DE PARACAIDISMO DEPORTIVO DE COCHABAMBA \"ADPDC\"",
    "slug": "asociacion-departamental-de-paracaidismo-deportivo-de-cochabamba-adpdc",
    "latitude": -17.4266428437187,
    "longitude": -66.168336868286,
    "city": null,
    "state": null,
    "country": "Bolivia",
    "telephone": "77920323",
    "email": null,
    "website": null,
    "source": "scraped"
  },
  {
    "id": "gaborone-skydiving-club",
    "name": "Gaborone Skydiving Club",
    "slug": "gaborone-skydiving-club",
    "latitude": -24.5564855954692,
    "longitude": 25.919151306152,
    "city": null,
    "state": null,
    "country": "Botswana",
    "telephone": "(+267) 76446161",
    "email": null,
    "website": null,
    "source": "scraped"
  },
  {
    "id": "skydive-nordeste",
    "name": "Skydive Nordeste",
    "slug": "skydive-nordeste",
    "latitude": 14.1215999330689,
    "longitude": -4.5703125,
    "city": null,
    "state": null,
    "country": "Brazil",
    "telephone": "+55 81 - 9253.0105 - 9873.3432",
    "email": "contato@extremesportes.com.br",
    "website": "https://extremesportes.com.br/salto-tandem-salto-duplo.html",
    "source": "scraped"
  },
  {
    "id": "pecos-skydive",
    "name": "Pecos Skydive",
    "slug": "pecos-skydive",
    "latitude": -25.402637,
    "longitude": -49.233593,
    "city": null,
    "state": null,
    "country": "Brazil",
    "telephone": "55-41-99615554",
    "email": "tiaguito@arauplast.com.br",
    "website": null,
    "source": "scraped"
  },
  {
    "id": "avisrara-paraquedismo",
    "name": "AvisRara Paraquedismo",
    "slug": "avisrara-paraquedismo",
    "latitude": 19.4117,
    "longitude": 45.16,
    "city": null,
    "state": null,
    "country": "Brazil",
    "telephone": "+5531999799982",
    "email": "zuza@avisrarabrasil.com.br",
    "website": "https://avisrarabrasil.com.br",
    "source": "scraped"
  },
  {
    "id": "atmos-paraquedismo",
    "name": "Atmos Paraquedismo",
    "slug": "atmos-paraquedismo",
    "latitude": 22.42,
    "longitude": 47.37,
    "city": null,
    "state": null,
    "country": "Brazil",
    "telephone": "(19)3042-6121",
    "email": null,
    "website": null,
    "source": "scraped"
  },
  {
    "id": "brazil-skydive-thru",
    "name": "Brazil Skydive Thru",
    "slug": "brazil-skydive-thru",
    "latitude": -23.295681,
    "longitude": -47.690467,
    "city": null,
    "state": null,
    "country": "Brazil",
    "telephone": "5511 91169133",
    "email": null,
    "website": "https://www.skydivethru.com.br",
    "source": "scraped"
  },
  {
    "id": "barra-jumping",
    "name": "Barra Jumping",
    "slug": "barra-jumping",
    "latitude": -22.986513,
    "longitude": -43.366749,
    "city": null,
    "state": null,
    "country": "Brazil",
    "telephone": "+55 (21) 3410-4599",
    "email": "acozer@gmail.com",
    "website": null,
    "source": "scraped"
  },
  {
    "id": "paraquedismo-serra-do-cipo",
    "name": "Paraquedismo Serra do Cipó",
    "slug": "paraquedismo-serra-do-cipo",
    "latitude": -19.398658,
    "longitude": -43.747327,
    "city": null,
    "state": null,
    "country": "Brazil",
    "telephone": null,
    "email": null,
    "website": "https://www.avisrarabrasil.com.br",
    "source": "scraped"
  },
  {
    "id": "skydivejf",
    "name": "SkydiveJF",
    "slug": "skydivejf",
    "latitude": -20.792315672997,
    "longitude": -43.384453782477,
    "city": null,
    "state": null,
    "country": "Brazil",
    "telephone": "+55 32 9810-5168",
    "email": "contato@aeroclubejf.com.br",
    "website": "https://www.skydivejf.com.br/",
    "source": "scraped"
  },
  {
    "id": "skydivers-arapongas",
    "name": "Skydivers Arapongas",
    "slug": "skydivers-arapongas",
    "latitude": -23.355833,
    "longitude": 51.490833,
    "city": null,
    "state": null,
    "country": "Brazil",
    "telephone": "+554330554729",
    "email": null,
    "website": null,
    "source": "scraped"
  },
  {
    "id": "dropzone-rio",
    "name": "Dropzone Rio",
    "slug": "dropzone-rio",
    "latitude": -22.474837,
    "longitude": -44.476682,
    "city": null,
    "state": null,
    "country": "Brazil",
    "telephone": "+55 (21) 99565-0474",
    "email": null,
    "website": null,
    "source": "scraped"
  },
  {
    "id": "skydive-amazonas",
    "name": "Skydive Amazonas",
    "slug": "skydive-amazonas",
    "latitude": 0.380062131680249,
    "longitude": -60.8642578125,
    "city": null,
    "state": null,
    "country": "Brazil",
    "telephone": "092 9989 9989 - 92 8432 3826 - 92 8432 3",
    "email": null,
    "website": null,
    "source": "scraped"
  },
  {
    "id": "clube-de-paraquedismo-ijui",
    "name": "Clube de Paraquedismo Ijuí",
    "slug": "clube-de-paraquedismo-ijui",
    "latitude": -28.371917788055,
    "longitude": -53.865537643433,
    "city": null,
    "state": null,
    "country": "Brazil",
    "telephone": "+55 55 9193 8241",
    "email": null,
    "website": null,
    "source": "scraped"
  },
  {
    "id": "fly-factory-freefly",
    "name": "Fly Factory Freefly",
    "slug": "fly-factory-freefly",
    "latitude": -23.296133,
    "longitude": -47.687914,
    "city": null,
    "state": null,
    "country": "Brazil",
    "telephone": "(11) 8151-1800",
    "email": "flyfactory@flyfactory.com.br",
    "website": "https://flyfactory.com.br",
    "source": "scraped"
  },
  {
    "id": "ws-air-museum-vem-saltar",
    "name": "WS air museum/ vem saltar",
    "slug": "ws-air-museum-vem-saltar",
    "latitude": -25.426664,
    "longitude": -49.528219718,
    "city": null,
    "state": null,
    "country": "Brazil",
    "telephone": "+55 41 99977 5232",
    "email": "Vemsaltar@gmail",
    "website": "https://www.vemsaltar.com.br",
    "source": "scraped"
  },
  {
    "id": "centro-gaucho-de-paraquedismo",
    "name": "Centro Gaucho de Paraquedismo",
    "slug": "centro-gaucho-de-paraquedismo",
    "latitude": -29.6978574515309,
    "longitude": -51.083056926727,
    "city": null,
    "state": null,
    "country": "Brazil",
    "telephone": "+55 51 3595 3814",
    "email": null,
    "website": "https://www.cgpqd.com.br/",
    "source": "scraped"
  },
  {
    "id": "go-vertical-rio-de-janeiro",
    "name": "Go Vertical Rio de Janeiro",
    "slug": "go-vertical-rio-de-janeiro",
    "latitude": -22.986496,
    "longitude": -43.366804,
    "city": null,
    "state": null,
    "country": "Brazil",
    "telephone": "21 2257-3247",
    "email": null,
    "website": null,
    "source": "scraped"
  },
  {
    "id": "gravidade-paraquedismo",
    "name": "Gravidade Paraquedismo",
    "slug": "gravidade-paraquedismo",
    "latitude": -8.125868,
    "longitude": -34.923968,
    "city": null,
    "state": null,
    "country": "Brazil",
    "telephone": "+55 81 3465 0559",
    "email": "edimatteo@gmail.com",
    "website": null,
    "source": "scraped"
  },
  {
    "id": "skydivethru-quero-saltar",
    "name": "SkydiveThru Quero Saltar",
    "slug": "skydivethru-quero-saltar",
    "latitude": -23.2634789,
    "longitude": -47.6836054,
    "city": null,
    "state": null,
    "country": "Brazil",
    "telephone": "+55  11  98350 8247",
    "email": "contato@querosaltar.com.br",
    "website": "https://querosaltar.com.br/",
    "source": "scraped"
  },
  {
    "id": "skydive-cerrado-2",
    "name": "Skydive Cerrado",
    "slug": "skydive-cerrado-2",
    "latitude": -16.3622207939184,
    "longitude": -48.929239290172,
    "city": null,
    "state": null,
    "country": "Brazil",
    "telephone": "+55 62 98320-9260",
    "email": null,
    "website": "https://skydivecerrado.com.br",
    "source": "scraped"
  },
  {
    "id": "guarapari-skydiving",
    "name": "Guarapari Skydiving",
    "slug": "guarapari-skydiving",
    "latitude": -20.6461114682955,
    "longitude": -40.490584373474,
    "city": null,
    "state": null,
    "country": "Brazil",
    "telephone": "+5527981416160",
    "email": null,
    "website": null,
    "source": "scraped"
  },
  {
    "id": "3f-fortaleza-free-fall",
    "name": "3F Fortaleza Free Fall",
    "slug": "3f-fortaleza-free-fall",
    "latitude": -3.773029,
    "longitude": -38.534977,
    "city": null,
    "state": null,
    "country": "Brazil",
    "telephone": "+55 85 99904-5899, +55 85 9602 5922",
    "email": "adilsonjuliao@terra.com.br",
    "website": null,
    "source": "scraped"
  },
  {
    "id": "aeroclube-de-sao-jose",
    "name": "Aeroclube de São José",
    "slug": "aeroclube-de-sao-jose",
    "latitude": -27.6129664226402,
    "longitude": -48.675034046173,
    "city": null,
    "state": null,
    "country": "Brazil",
    "telephone": null,
    "email": null,
    "website": null,
    "source": "scraped"
  },
  {
    "id": "aeroclube-de-sergipe",
    "name": "Aeroclube de Sergipe",
    "slug": "aeroclube-de-sergipe",
    "latitude": -10.90224,
    "longitude": -37.08258,
    "city": null,
    "state": null,
    "country": "Brazil",
    "telephone": "+55 79 81342779",
    "email": null,
    "website": null,
    "source": "scraped"
  },
  {
    "id": "aeroclube-da-paraiba",
    "name": "Aeroclube da Paraíba",
    "slug": "aeroclube-da-paraiba",
    "latitude": -7.09160220723166,
    "longitude": -34.84245300293,
    "city": null,
    "state": null,
    "country": "Brazil",
    "telephone": "+55 83 3246-0234",
    "email": "contato@aeroclubedaparaiba.com.br",
    "website": null,
    "source": "scraped"
  },
  {
    "id": "skydivers-arapongas-2",
    "name": "Skydivers Arapongas",
    "slug": "skydivers-arapongas-2",
    "latitude": -23.3526774964673,
    "longitude": -51.494057178497,
    "city": null,
    "state": null,
    "country": "Brazil",
    "telephone": "+554432242976",
    "email": null,
    "website": null,
    "source": "scraped"
  },
  {
    "id": "amazon-jump",
    "name": "Amazon Jump",
    "slug": "amazon-jump",
    "latitude": -8.795763,
    "longitude": -63.857635,
    "city": null,
    "state": null,
    "country": "Brazil",
    "telephone": "+55 69 3227 2481",
    "email": null,
    "website": null,
    "source": "scraped"
  },
  {
    "id": "azul-do-vento-paraquedismo",
    "name": "Azul do Vento Páraquedismo",
    "slug": "azul-do-vento-paraquedismo",
    "latitude": -21.789241,
    "longitude": -47.056379,
    "city": null,
    "state": null,
    "country": "Brazil",
    "telephone": "+55 (19) 3246-0455",
    "email": "info@azuldovento.com.br",
    "website": null,
    "source": "scraped"
  },
  {
    "id": "avis-rara-paraquedismo",
    "name": "Avis Rara Paraquedismo",
    "slug": "avis-rara-paraquedismo",
    "latitude": -19.687283,
    "longitude": -45.268275,
    "city": null,
    "state": null,
    "country": "Brazil",
    "telephone": "31 999799982",
    "email": "zuza@avisrarabrasil.com.br",
    "website": "https://avisrarabrasil.com.br",
    "source": "scraped"
  },
  {
    "id": "barra-do-vento",
    "name": "Barra do Vento",
    "slug": "barra-do-vento",
    "latitude": 2.69747687925038,
    "longitude": -60.806365013123,
    "city": null,
    "state": null,
    "country": "Brazil",
    "telephone": "+55-95-9971-1500",
    "email": null,
    "website": null,
    "source": "scraped"
  },
  {
    "id": "boituva-skydive-boituva",
    "name": "Boituva Skydive Boituva",
    "slug": "boituva-skydive-boituva",
    "latitude": -23.2974428913543,
    "longitude": -47.688437104225,
    "city": null,
    "state": null,
    "country": "Brazil",
    "telephone": "+55 15 32635202",
    "email": null,
    "website": "https://skydiveboituva.com.br",
    "source": "scraped"
  },
  {
    "id": "boituva-queda-livre-pqd",
    "name": "Boituva Queda Livre PQD",
    "slug": "boituva-queda-livre-pqd",
    "latitude": -23.295333,
    "longitude": -47.690871,
    "city": null,
    "state": null,
    "country": "Brazil",
    "telephone": "1532634861",
    "email": null,
    "website": "https://quedalivre.com.br",
    "source": "scraped"
  },
  {
    "id": "brasil-paraquedismo",
    "name": "Brasil Paraquedismo",
    "slug": "brasil-paraquedismo",
    "latitude": -23.295261,
    "longitude": -47.689994,
    "city": null,
    "state": null,
    "country": "Brazil",
    "telephone": "5511-83541050",
    "email": null,
    "website": "https://www.brasilparaquedismo.com.br",
    "source": "scraped"
  },
  {
    "id": "brasil-skydive",
    "name": "Brasil Skydive",
    "slug": "brasil-skydive",
    "latitude": -3.777168,
    "longitude": -38.533118,
    "city": null,
    "state": null,
    "country": "Brazil",
    "telephone": "+55 85 3263-2464",
    "email": null,
    "website": null,
    "source": "scraped"
  },
  {
    "id": "delete",
    "name": "delete",
    "slug": "delete",
    "latitude": -27.1616552157062,
    "longitude": -48.629457950592,
    "city": null,
    "state": null,
    "country": "Brazil",
    "telephone": "+55 47 9996-4299",
    "email": null,
    "website": null,
    "source": "scraped"
  },
  {
    "id": "escola-brasileira-de-paraquedismo",
    "name": "Escola Brasileira de Paraquedismo",
    "slug": "escola-brasileira-de-paraquedismo",
    "latitude": -23.295658,
    "longitude": -47.691391,
    "city": null,
    "state": null,
    "country": "Brazil",
    "telephone": "55 15 3263 3023",
    "email": "sombra@ebparaquedismo.com.br",
    "website": null,
    "source": "scraped"
  },
  {
    "id": "fly-curitiba",
    "name": "Fly Curitiba",
    "slug": "fly-curitiba",
    "latitude": -25.42334,
    "longitude": -49.280533,
    "city": null,
    "state": null,
    "country": "Brazil",
    "telephone": "+55 41 9977 2504",
    "email": "contato@flycuritiba.com.br",
    "website": "https://flycuritiba.com.br/",
    "source": "scraped"
  },
  {
    "id": "fly-paraquedismo",
    "name": "FLY PARAQUEDISMO",
    "slug": "fly-paraquedismo",
    "latitude": -23.2141297671364,
    "longitude": -51.181654930115,
    "city": null,
    "state": null,
    "country": "Brazil",
    "telephone": "43 3027 6265",
    "email": null,
    "website": null,
    "source": "scraped"
  },
  {
    "id": "frango-loco",
    "name": "Frango Loco",
    "slug": "frango-loco",
    "latitude": -25.7454770673686,
    "longitude": -53.069458007812,
    "city": null,
    "state": null,
    "country": "Brazil",
    "telephone": "+55 46-8833-3810/9108-5008",
    "email": "frangolocopqd@hotmail.com",
    "website": null,
    "source": "scraped"
  },
  {
    "id": "paraquedismo-macapa",
    "name": "Paraquedismo Macapá",
    "slug": "paraquedismo-macapa",
    "latitude": 0.208311,
    "longitude": -51.007845,
    "city": null,
    "state": null,
    "country": "Brazil",
    "telephone": "96-99117-5488",
    "email": "fpytterleite@hotmail.com",
    "website": null,
    "source": "scraped"
  },
  {
    "id": "passageiros-do-vento",
    "name": "Passageiros do Vento",
    "slug": "passageiros-do-vento",
    "latitude": -27.670007,
    "longitude": -48.545917,
    "city": null,
    "state": null,
    "country": "Brazil",
    "telephone": "55 48 9911 5471",
    "email": "skyfloripa@hotmail.com",
    "website": null,
    "source": "scraped"
  },
  {
    "id": "pecos-paraquedismo",
    "name": "Pecos Paraquedismo",
    "slug": "pecos-paraquedismo",
    "latitude": -25.40258,
    "longitude": -49.233613,
    "city": null,
    "state": null,
    "country": "Brazil",
    "telephone": "041 357-9392",
    "email": "skydivepecos@ig.com.br",
    "website": null,
    "source": "scraped"
  },
  {
    "id": "skydive-beltrao",
    "name": "Skydive Beltrão",
    "slug": "skydive-beltrao",
    "latitude": -26.060077,
    "longitude": -53.066651,
    "city": null,
    "state": null,
    "country": "Brazil",
    "telephone": "+55 46 3524-9835",
    "email": null,
    "website": null,
    "source": "scraped"
  },
  {
    "id": "skydive-in-rio",
    "name": "Skydive In Rio",
    "slug": "skydive-in-rio",
    "latitude": -22.986501,
    "longitude": -43.366774,
    "city": null,
    "state": null,
    "country": "Brazil",
    "telephone": "55 21 8112 4320",
    "email": null,
    "website": null,
    "source": "scraped"
  },
  {
    "id": "skydive-itaparica-salvador",
    "name": "Skydive Itaparica Salvador",
    "slug": "skydive-itaparica-salvador",
    "latitude": -13.027949,
    "longitude": -38.666176,
    "city": null,
    "state": null,
    "country": "Brazil",
    "telephone": "+55 (71) 9953-1000",
    "email": "julio@skydiveitaparica.com.br",
    "website": null,
    "source": "scraped"
  },
  {
    "id": "skydive-manaus",
    "name": "Skydive Manaus",
    "slug": "skydive-manaus",
    "latitude": -3.071973867474,
    "longitude": -60.017623901367,
    "city": null,
    "state": null,
    "country": "Brazil",
    "telephone": "+55 92 98115-6264",
    "email": "stanley.william@hotmail.com",
    "website": null,
    "source": "scraped"
  },
  {
    "id": "skydive-natal-paraqudismo",
    "name": "Skydive Natal Paraqudismo",
    "slug": "skydive-natal-paraqudismo",
    "latitude": -5.6612046676503,
    "longitude": -35.41385807097,
    "city": null,
    "state": null,
    "country": "Brazil",
    "telephone": "+55 (84) 3025-1102 / 9849-7160 / 9609-95",
    "email": null,
    "website": null,
    "source": "scraped"
  },
  {
    "id": "skydive-paraiba",
    "name": "Skydive Paraíba",
    "slug": "skydive-paraiba",
    "latitude": -7.09167,
    "longitude": -34.842414,
    "city": null,
    "state": null,
    "country": "Brazil",
    "telephone": null,
    "email": null,
    "website": null,
    "source": "scraped"
  },
  {
    "id": "skydive-resende",
    "name": "Skydive Resende",
    "slug": "skydive-resende",
    "latitude": -22.4735537722552,
    "longitude": -44.476986143114,
    "city": null,
    "state": null,
    "country": "Brazil",
    "telephone": "Tel/Fax - 5524-3354-7352 / 5524-3355-815",
    "email": "skydive@skydiveresende.com.br",
    "website": null,
    "source": "scraped"
  },
  {
    "id": "skyzimba-paraquedismo",
    "name": "SkyZimba Paraquedismo",
    "slug": "skyzimba-paraquedismo",
    "latitude": -28.1783932313959,
    "longitude": -48.683316707611,
    "city": null,
    "state": null,
    "country": "Brazil",
    "telephone": "(48) 9151-1551",
    "email": null,
    "website": "https://skyzimba.com.br",
    "source": "scraped"
  },
  {
    "id": "skyville",
    "name": "Skyville",
    "slug": "skyville",
    "latitude": -26.221418,
    "longitude": -48.805027,
    "city": null,
    "state": null,
    "country": "Brazil",
    "telephone": null,
    "email": null,
    "website": null,
    "source": "scraped"
  },
  {
    "id": "ws-air-museum-vem-saltar-2",
    "name": "WS air museum/ vem saltar",
    "slug": "ws-air-museum-vem-saltar-2",
    "latitude": -25.426664,
    "longitude": -49.528219718,
    "city": null,
    "state": null,
    "country": "Brazil",
    "telephone": "+55 41 99977 5232",
    "email": "Vemsaltar@gmail",
    "website": "https://www.vemsaltar.com.br",
    "source": "scraped"
  },
  {
    "id": "queda-livre",
    "name": "Queda Livre",
    "slug": "queda-livre",
    "latitude": -23.29656,
    "longitude": -47.69137,
    "city": null,
    "state": null,
    "country": "Brazil",
    "telephone": "(55-11) 97545955",
    "email": null,
    "website": "https://quedalivrepqd.com.br/",
    "source": "scraped"
  },
  {
    "id": "skydive-salvador",
    "name": "Skydive Salvador",
    "slug": "skydive-salvador",
    "latitude": -13.027996,
    "longitude": -38.6667,
    "city": null,
    "state": null,
    "country": "Brazil",
    "telephone": "55 (71) 9953-1000",
    "email": null,
    "website": "https://www.skydivesalvador.com.br",
    "source": "scraped"
  },
  {
    "id": "paraquedismo-boits",
    "name": "Paraquedismo Boits",
    "slug": "paraquedismo-boits",
    "latitude": -23.298324,
    "longitude": -47.692438,
    "city": null,
    "state": null,
    "country": "Brazil",
    "telephone": "1198412574",
    "email": "dumeirelles@ig.com.br",
    "website": "https://www.boituvaparaquedismo.com.br",
    "source": "scraped"
  },
  {
    "id": "fly-paraquedismo-2",
    "name": "Fly Paraquedismo",
    "slug": "fly-paraquedismo-2",
    "latitude": -23.213691,
    "longitude": -51.179975,
    "city": null,
    "state": null,
    "country": "Brazil",
    "telephone": "(43)3027-6265",
    "email": "flypqd@flypqd.com.br",
    "website": "https://www.flypqd.com.br",
    "source": "scraped"
  },
  {
    "id": "boituva-paraquedismo",
    "name": "Boituva Paraquedismo",
    "slug": "boituva-paraquedismo",
    "latitude": -23.296036,
    "longitude": -47.687779,
    "city": null,
    "state": null,
    "country": "Brazil",
    "telephone": "+55 11 3864-9234",
    "email": "dumeirelles@ig.com.br",
    "website": "https://paraquedismoboituva.com.br",
    "source": "scraped"
  },
  {
    "id": "boituva-sky-company",
    "name": "Boituva Sky Company",
    "slug": "boituva-sky-company",
    "latitude": -23.295314,
    "longitude": -47.690167,
    "city": null,
    "state": null,
    "country": "Brazil",
    "telephone": null,
    "email": null,
    "website": "https://paraquedismoskycompany.com.br/",
    "source": "scraped"
  },
  {
    "id": "ctr-clube-do-tr",
    "name": "CTR - Clube do TR",
    "slug": "ctr-clube-do-tr",
    "latitude": -23.296042,
    "longitude": -47.687782,
    "city": null,
    "state": null,
    "country": "Brazil",
    "telephone": "(15) 263-0209",
    "email": "andre@paraquedas.com.br",
    "website": "https://clubedotr.com.br",
    "source": "scraped"
  },
  {
    "id": "fly-londrina-paraquedismo",
    "name": "Fly Londrina Paraquedismo",
    "slug": "fly-londrina-paraquedismo",
    "latitude": -23.2142074853676,
    "longitude": -51.17968082428,
    "city": null,
    "state": null,
    "country": "Brazil",
    "telephone": "+55 43 3027-6265",
    "email": null,
    "website": "https://www.flypqd.com.br",
    "source": "scraped"
  },
  {
    "id": "skydive-cerrado",
    "name": "Skydive Cerrado",
    "slug": "skydive-cerrado",
    "latitude": -16.359754,
    "longitude": -48.928511,
    "city": null,
    "state": null,
    "country": "Brazil",
    "telephone": "55-62-983209260",
    "email": null,
    "website": "https://www.skydivecerrado.com.br",
    "source": "scraped"
  },
  {
    "id": "paraquedismo-rio-de-janeiro",
    "name": "Paraquedismo Rio de Janeiro",
    "slug": "paraquedismo-rio-de-janeiro",
    "latitude": -22.473439,
    "longitude": -44.476044,
    "city": null,
    "state": null,
    "country": "Brazil",
    "telephone": "+55 21 3357- 7357",
    "email": "paraquedismorj@gmail.com",
    "website": "https://paraquedismoriodejaneiro.com.br/",
    "source": "scraped"
  },
  {
    "id": "salto-duplo-curitiba",
    "name": "Salto Duplo Curitiba",
    "slug": "salto-duplo-curitiba",
    "latitude": -25.40496,
    "longitude": -49.23205,
    "city": null,
    "state": null,
    "country": "Brazil",
    "telephone": "55xx 41 9117 0708",
    "email": null,
    "website": "https://saltoduplocuritiba.com.br",
    "source": "scraped"
  },
  {
    "id": "sao-paulo-paraquedismo",
    "name": "São Paulo Paraquedismo",
    "slug": "sao-paulo-paraquedismo",
    "latitude": -23.2963,
    "longitude": -47.688312,
    "city": null,
    "state": null,
    "country": "Brazil",
    "telephone": "55 15 30101605",
    "email": null,
    "website": "https://saopauloparaquedismo.com.br",
    "source": "scraped"
  },
  {
    "id": "skydive-foz",
    "name": "Skydive Foz",
    "slug": "skydive-foz",
    "latitude": -25.460703,
    "longitude": -54.596739,
    "city": null,
    "state": null,
    "country": "Brazil",
    "telephone": null,
    "email": null,
    "website": "https://skydivefoz.com",
    "source": "scraped"
  },
  {
    "id": "skydive-rio",
    "name": "Skydive Rio",
    "slug": "skydive-rio",
    "latitude": -22.473816,
    "longitude": -44.475915,
    "city": null,
    "state": null,
    "country": "Brazil",
    "telephone": "+55 21 97204-0220",
    "email": "info@skydiverio.com.br",
    "website": "https://www.skydiverio.com.br/",
    "source": "scraped"
  },
  {
    "id": "skydive-rio-de-janeiro",
    "name": "Skydive Rio de Janeiro",
    "slug": "skydive-rio-de-janeiro",
    "latitude": -22.986506,
    "longitude": -43.366815,
    "city": null,
    "state": null,
    "country": "Brazil",
    "telephone": "55 21 3410-4599",
    "email": null,
    "website": "https://skydiveriodejaneiro.com.br",
    "source": "scraped"
  },
  {
    "id": "skyradical",
    "name": "SkyRadical",
    "slug": "skyradical",
    "latitude": -23.29741,
    "longitude": -47.68942,
    "city": null,
    "state": null,
    "country": "Brazil",
    "telephone": null,
    "email": null,
    "website": "https://www.skyradical.com.br",
    "source": "scraped"
  },
  {
    "id": "vertical-speed",
    "name": "Vertical Speed",
    "slug": "vertical-speed",
    "latitude": -28.2519229688622,
    "longitude": -52.516965866089,
    "city": null,
    "state": null,
    "country": "Brazil",
    "telephone": null,
    "email": "Marcelo Ricci [verticalspeedparaquedismo",
    "website": "https://verticalspeed.com.br",
    "source": "scraped"
  },
  {
    "id": "skydive-sofia",
    "name": "Skydive Sofia",
    "slug": "skydive-sofia",
    "latitude": 42.421334,
    "longitude": 23.766744,
    "city": null,
    "state": null,
    "country": "Bulgaria",
    "telephone": "+359 888840842",
    "email": "info@skydivesofia.com",
    "website": "https://skydivesofia.com",
    "source": "scraped"
  },
  {
    "id": "ava-flying-centre",
    "name": "AVA Flying Centre",
    "slug": "ava-flying-centre",
    "latitude": 43.49925,
    "longitude": 23.304694,
    "city": null,
    "state": null,
    "country": "Bulgaria",
    "telephone": "+35996300235",
    "email": null,
    "website": "https://www.dropzone.bg",
    "source": "scraped"
  },
  {
    "id": "blue-sky-international",
    "name": "Blue Sky International",
    "slug": "blue-sky-international",
    "latitude": 42.4214765357059,
    "longitude": 23.766496181488,
    "city": null,
    "state": null,
    "country": "Bulgaria",
    "telephone": null,
    "email": null,
    "website": null,
    "source": "scraped"
  },
  {
    "id": "skydive-plovdiv",
    "name": "SKYDIVE PLOVDIV",
    "slug": "skydive-plovdiv",
    "latitude": 42.21,
    "longitude": 31.81640625,
    "city": null,
    "state": null,
    "country": "Bulgaria",
    "telephone": null,
    "email": null,
    "website": null,
    "source": "scraped"
  },
  {
    "id": "sko4ibg-bulgaria",
    "name": "Sko4ibg Bulgaria",
    "slug": "sko4ibg-bulgaria",
    "latitude": 42.311276,
    "longitude": 23.232484,
    "city": null,
    "state": null,
    "country": "Bulgaria",
    "telephone": "+359888052700",
    "email": "sko4ibg@gmail.com",
    "website": "https://www.sko4i.bg/en/home/p1/.html?",
    "source": "scraped"
  },
  {
    "id": "kamloops-skydivers-spc",
    "name": "Kamloops Skydivers SPC",
    "slug": "kamloops-skydivers-spc",
    "latitude": 50.7062427855442,
    "longitude": -120.43865203857,
    "city": null,
    "state": null,
    "country": "Canada",
    "telephone": "250-376-1213",
    "email": "jump@skydivekamloops.org",
    "website": null,
    "source": "scraped"
  },
  {
    "id": "skydive-burnaby",
    "name": "Skydive Burnaby",
    "slug": "skydive-burnaby",
    "latitude": 42.8764672936602,
    "longitude": -79.353904724121,
    "city": null,
    "state": null,
    "country": "Canada",
    "telephone": "905 899 1528",
    "email": "pneumatic.sports@sympatico.ca",
    "website": "https://skydiveburnaby.com",
    "source": "scraped"
  },
  {
    "id": "parachutisme-adrenaline-trois-rivieres",
    "name": "Parachutisme Adrénaline Trois-Rivières",
    "slug": "parachutisme-adrenaline-trois-rivieres",
    "latitude": 46.3630407099086,
    "longitude": -72.677822113037,
    "city": null,
    "state": null,
    "country": "Canada",
    "telephone": "1-877-PARACHUTE",
    "email": null,
    "website": "https://parachute3r.com",
    "source": "scraped"
  },
  {
    "id": "parachute-montreal-skydiving",
    "name": "Parachute Montréal Skydiving",
    "slug": "parachute-montreal-skydiving",
    "latitude": 45.9067332380882,
    "longitude": -73.666763305664,
    "city": null,
    "state": null,
    "country": "Canada",
    "telephone": "450-839-1111",
    "email": null,
    "website": "https://parachutemontreal.ca",
    "source": "scraped"
  },
  {
    "id": "ecole-de-parachutime-de-victoriaville",
    "name": "École De Parachutime De Victoriaville",
    "slug": "ecole-de-parachutime-de-victoriaville",
    "latitude": 46.113829,
    "longitude": -71.926746,
    "city": null,
    "state": null,
    "country": "Canada",
    "telephone": "+1 888-537-2883",
    "email": "info@paravic.com",
    "website": "https://paravic.com/",
    "source": "scraped"
  },
  {
    "id": "skydive-nova",
    "name": "Skydive NOVA",
    "slug": "skydive-nova",
    "latitude": 50.6849302821149,
    "longitude": -119.23135757446,
    "city": null,
    "state": null,
    "country": "Canada",
    "telephone": "250-833-5841",
    "email": null,
    "website": null,
    "source": "scraped"
  },
  {
    "id": "beaverly",
    "name": "Beaverly",
    "slug": "beaverly",
    "latitude": 53.855537,
    "longitude": -122.907552,
    "city": null,
    "state": null,
    "country": "Canada",
    "telephone": "250-964-8228",
    "email": "blackram@skydivebc.ca",
    "website": "https://skydivebc.ca",
    "source": "scraped"
  },
  {
    "id": "skydive-gananoque",
    "name": "Skydive Gananoque",
    "slug": "skydive-gananoque",
    "latitude": 44.401987,
    "longitude": -76.24027,
    "city": null,
    "state": null,
    "country": "Canada",
    "telephone": "613-382-5114",
    "email": "davidh@carrmclean.ca",
    "website": "https://www.skydivegan.com",
    "source": "scraped"
  },
  {
    "id": "skydive-saskatoon",
    "name": "Skydive Saskatoon",
    "slug": "skydive-saskatoon",
    "latitude": 52.2816925651962,
    "longitude": -106.69126117233,
    "city": null,
    "state": null,
    "country": "Canada",
    "telephone": "639-998-5867",
    "email": null,
    "website": "https://www.skydive.ca",
    "source": "scraped"
  },
  {
    "id": "skydive-toronto-inc",
    "name": "Skydive Toronto Inc.",
    "slug": "skydive-toronto-inc",
    "latitude": 44.2384966913579,
    "longitude": -79.641094207764,
    "city": null,
    "state": null,
    "country": "Canada",
    "telephone": "1-800-668-5867/ 705-458-9339",
    "email": "joeclaire@skydivetoronto.com",
    "website": "https://skydivetoronto.com",
    "source": "scraped"
  },
  {
    "id": "skydive-extreme-calgary",
    "name": "Skydive Extreme Calgary",
    "slug": "skydive-extreme-calgary",
    "latitude": 51.390081,
    "longitude": -113.469833,
    "city": null,
    "state": null,
    "country": "Canada",
    "telephone": "825-994-7392",
    "email": "info@skydiveextreme.com",
    "website": "https://skydiveextremecalgary.com/",
    "source": "scraped"
  },
  {
    "id": "niagara-skydive-center-inc",
    "name": "Niagara Skydive Center Inc.",
    "slug": "niagara-skydive-center-inc",
    "latitude": 42.8743287023929,
    "longitude": -79.599981307983,
    "city": null,
    "state": null,
    "country": "Canada",
    "telephone": "905.701.5867",
    "email": "dz@niagaraskydive.com",
    "website": null,
    "source": "scraped"
  },
  {
    "id": "alexandria-skydive",
    "name": "Alexandria Skydive",
    "slug": "alexandria-skydive",
    "latitude": 45.3312611875772,
    "longitude": -74.621136188507,
    "city": null,
    "state": null,
    "country": "Canada",
    "telephone": "613 525-0877",
    "email": null,
    "website": null,
    "source": "scraped"
  },
  {
    "id": "cep-les-3-mousquetair",
    "name": "CEP Les 3 Mousquet'Air",
    "slug": "cep-les-3-mousquetair",
    "latitude": 48.2125487609112,
    "longitude": -78.829822540283,
    "city": null,
    "state": null,
    "country": "Canada",
    "telephone": "+1 819-763-7450",
    "email": "info@3mousquetair.com",
    "website": null,
    "source": "scraped"
  },
  {
    "id": "horizon",
    "name": "Horizon",
    "slug": "horizon",
    "latitude": 48.508811,
    "longitude": -71.652005,
    "city": null,
    "state": null,
    "country": "Canada",
    "telephone": "418-673-3004",
    "email": "skydive@parahorizon.com",
    "website": null,
    "source": "scraped"
  },
  {
    "id": "okanagan-skydive",
    "name": "Okanagan Skydive",
    "slug": "okanagan-skydive",
    "latitude": 50.248811,
    "longitude": -119.326419,
    "city": null,
    "state": null,
    "country": "Canada",
    "telephone": "1 866 466 JUMP",
    "email": "okskydive@telus.net",
    "website": "https://www.okanaganskydive.com",
    "source": "scraped"
  },
  {
    "id": "parachutisme-adrenaline",
    "name": "Parachutisme Adrenaline",
    "slug": "parachutisme-adrenaline",
    "latitude": 45.7825490682828,
    "longitude": -74.051628112793,
    "city": null,
    "state": null,
    "country": "Canada",
    "telephone": "1-877-727-2248",
    "email": "info@paradrenaline.ca",
    "website": null,
    "source": "scraped"
  },
  {
    "id": "skydive-manitoba",
    "name": "Skydive Manitoba",
    "slug": "skydive-manitoba",
    "latitude": 50.636603,
    "longitude": -97.044749,
    "city": null,
    "state": null,
    "country": "Canada",
    "telephone": "204-799-JUMP (5867)",
    "email": null,
    "website": "https://skydivemanitoba.com",
    "source": "scraped"
  },
  {
    "id": "skydive-ontario",
    "name": "Skydive Ontario",
    "slug": "skydive-ontario",
    "latitude": 42.9661004350407,
    "longitude": -79.783444404602,
    "city": null,
    "state": null,
    "country": "Canada",
    "telephone": "+1.416.759.3483",
    "email": "jump@skydiveontario.com",
    "website": null,
    "source": "scraped"
  },
  {
    "id": "skydive-vancouver-island",
    "name": "Skydive Vancouver Island",
    "slug": "skydive-vancouver-island",
    "latitude": 49.3459006787075,
    "longitude": -124.50933329393,
    "city": null,
    "state": null,
    "country": "Canada",
    "telephone": "250.580.5867",
    "email": null,
    "website": "https://skydivevancouverisland.com",
    "source": "scraped"
  },
  {
    "id": "skydive-swoop",
    "name": "Skydive SWOOP",
    "slug": "skydive-swoop",
    "latitude": 43.302445,
    "longitude": -79.971886,
    "city": null,
    "state": null,
    "country": "Canada",
    "telephone": "1-800-463-5867 (JUMP)",
    "email": "skydive@swoop.on.ca",
    "website": "https://skydiveswoop.ca",
    "source": "scraped"
  },
  {
    "id": "skydive-manitoba-2",
    "name": "Skydive Manitoba",
    "slug": "skydive-manitoba-2",
    "latitude": 50.5926136776461,
    "longitude": -97.003784179688,
    "city": null,
    "state": null,
    "country": "Canada",
    "telephone": "204-799-5867 (204-799-JUMP)",
    "email": null,
    "website": null,
    "source": "scraped"
  },
  {
    "id": "adventure-skydiving-2",
    "name": "Adventure Skydiving",
    "slug": "adventure-skydiving-2",
    "latitude": 49.5548808878098,
    "longitude": -96.684858798981,
    "city": null,
    "state": null,
    "country": "Canada",
    "telephone": "(204) 339-JUMP (5867)",
    "email": null,
    "website": null,
    "source": "scraped"
  },
  {
    "id": "velocity-venture-inc",
    "name": "Velocity Venture Inc.",
    "slug": "velocity-venture-inc",
    "latitude": 42.819722,
    "longitude": -80.263972,
    "city": null,
    "state": null,
    "country": "Canada",
    "telephone": "(519) 221 SKYY",
    "email": "ross@velocityventure,com",
    "website": null,
    "source": "scraped"
  },
  {
    "id": "whistler-skydiving",
    "name": "Whistler Skydiving",
    "slug": "whistler-skydiving",
    "latitude": 50.2980028950402,
    "longitude": -122.74097442627,
    "city": null,
    "state": null,
    "country": "Canada",
    "telephone": "(604) 698-7120",
    "email": null,
    "website": "https://www.whistlerskydiving.ca",
    "source": "scraped"
  },
  {
    "id": "grand-bend-sport-parachuting-center",
    "name": "Grand Bend Sport Parachuting Center",
    "slug": "grand-bend-sport-parachuting-center",
    "latitude": 43.2876087929378,
    "longitude": -81.721887588501,
    "city": null,
    "state": null,
    "country": "Canada",
    "telephone": "1-800-363-JUMP or (519) 238-8610",
    "email": "skydive@hay.net",
    "website": "https://www.skydivegrandbend.com/",
    "source": "scraped"
  },
  {
    "id": "parachutisme-atmosphair",
    "name": "Parachutisme Atmosphair",
    "slug": "parachutisme-atmosphair",
    "latitude": 46.7553,
    "longitude": -71.10605,
    "city": null,
    "state": null,
    "country": "Canada",
    "telephone": "(418) 834-7272",
    "email": "atmosphair@atmosphair.com",
    "website": "https://atmosphair.com",
    "source": "scraped"
  },
  {
    "id": "adventure-skydiving",
    "name": "Adventure Skydiving",
    "slug": "adventure-skydiving",
    "latitude": 49.555,
    "longitude": -96.685193,
    "city": null,
    "state": null,
    "country": "Canada",
    "telephone": "204-339-5867",
    "email": "ajames@mb.sympatico.ca",
    "website": "https://339jump.com",
    "source": "scraped"
  },
  {
    "id": "atlantic-school-of-skydiving",
    "name": "Atlantic School of Skydiving",
    "slug": "atlantic-school-of-skydiving",
    "latitude": 45.054246,
    "longitude": -64.647119,
    "city": null,
    "state": null,
    "country": "Canada",
    "telephone": "(902) 423-5867",
    "email": "dropzone@attcanada.ca",
    "website": "https://atlanticschoolofskydiving.com",
    "source": "scraped"
  },
  {
    "id": "campbell-river-skydive-centre",
    "name": "Campbell River Skydive Centre",
    "slug": "campbell-river-skydive-centre",
    "latitude": 49.956561,
    "longitude": -125.275391,
    "city": null,
    "state": null,
    "country": "Canada",
    "telephone": "12506550014",
    "email": "capcitysky@gmail.com",
    "website": "https://www.campbellriverskydivecentre.ca/",
    "source": "scraped"
  },
  {
    "id": "gatineau-ottawa-skydive",
    "name": "Gatineau Ottawa Skydive",
    "slug": "gatineau-ottawa-skydive",
    "latitude": 45.5194549129818,
    "longitude": -75.556470751762,
    "city": null,
    "state": null,
    "country": "Canada",
    "telephone": "(613) 858-JUMP (5867)",
    "email": null,
    "website": "https://www.goskydive.ca",
    "source": "scraped"
  },
  {
    "id": "west-edmonton-skydiving-centre",
    "name": "West Edmonton Skydiving Centre",
    "slug": "west-edmonton-skydiving-centre",
    "latitude": 53.6268981978966,
    "longitude": -114.16410765076,
    "city": null,
    "state": null,
    "country": "Canada",
    "telephone": "780-297-5867",
    "email": "info@skydivewestedmonton.com",
    "website": "https://skydivewestedmonton.com",
    "source": "scraped"
  },
  {
    "id": "parachute-school-of-toronto-limited",
    "name": "Parachute School of Toronto Limited",
    "slug": "parachute-school-of-toronto-limited",
    "latitude": 44.27,
    "longitude": -79.34,
    "city": null,
    "state": null,
    "country": "Canada",
    "telephone": "1-800-DO-1-JUMP (1-800-361-5867)",
    "email": "adam@parachuteschool.com",
    "website": "https://www.parachuteschool.com",
    "source": "scraped"
  },
  {
    "id": "parachutisme-nouvel-air",
    "name": "Parachutisme Nouvel Air",
    "slug": "parachutisme-nouvel-air",
    "latitude": 45.2856063509884,
    "longitude": -73.005352020264,
    "city": null,
    "state": null,
    "country": "Canada",
    "telephone": "(450) 293-8118",
    "email": "info@nouvelair.ca",
    "website": "https://nouvelair.ca",
    "source": "scraped"
  },
  {
    "id": "skydive-blue-sky",
    "name": "Skydive Blue Sky",
    "slug": "skydive-blue-sky",
    "latitude": 52.082222,
    "longitude": -114.016667,
    "city": null,
    "state": null,
    "country": "Canada",
    "telephone": "587-877-9171",
    "email": "skydiveblue101@gmail.com",
    "website": "https://www.skydivealberta.com/",
    "source": "scraped"
  },
  {
    "id": "skydive-moncton",
    "name": "Skydive Moncton",
    "slug": "skydive-moncton",
    "latitude": 46.2812,
    "longitude": -64.7082,
    "city": null,
    "state": null,
    "country": "Canada",
    "telephone": "(506) 858-0675",
    "email": "tot@skydivemoncton.com",
    "website": "https://skydivemoncton.com",
    "source": "scraped"
  },
  {
    "id": "skydive-south-sask",
    "name": "Skydive South Sask.",
    "slug": "skydive-south-sask",
    "latitude": 50.4341105471453,
    "longitude": -105.38772583008,
    "city": null,
    "state": null,
    "country": "Canada",
    "telephone": "306-569-5867",
    "email": "info@skydivesouthsask.ca",
    "website": "https://skydivesouthsask.ca/",
    "source": "scraped"
  },
  {
    "id": "gatineau-ottawa-skydive-2",
    "name": "Gatineau Ottawa Skydive",
    "slug": "gatineau-ottawa-skydive-2",
    "latitude": 45.52,
    "longitude": -75.58,
    "city": null,
    "state": null,
    "country": "Canada",
    "telephone": "819-669-5867",
    "email": null,
    "website": "https://goskydive.ca",
    "source": "scraped"
  },
  {
    "id": "voltige-2001",
    "name": "Voltige 2001",
    "slug": "voltige-2001",
    "latitude": 46.100569453286,
    "longitude": -73.452143669128,
    "city": null,
    "state": null,
    "country": "Canada",
    "telephone": "450.752.0385",
    "email": "parafredo@sympatico.ca",
    "website": "https://www.voltige2001.net",
    "source": "scraped"
  },
  {
    "id": "skydive-atacama",
    "name": "Skydive Atacama",
    "slug": "skydive-atacama",
    "latitude": -33.57442,
    "longitude": -71.26243,
    "city": null,
    "state": null,
    "country": "Chile",
    "telephone": "56-9-93230988",
    "email": null,
    "website": null,
    "source": "scraped"
  },
  {
    "id": "aerodromo-diego-portales-la-ligua",
    "name": "Aerodromo Diego Portales La Ligua",
    "slug": "aerodromo-diego-portales-la-ligua",
    "latitude": -32.4486514146783,
    "longitude": -71.259298324585,
    "city": null,
    "state": null,
    "country": "Chile",
    "telephone": "56977659349",
    "email": "ppbcrra@yahoo.com",
    "website": "https://www.paracaidismo.net",
    "source": "scraped"
  },
  {
    "id": "air-skydive-paracaidismo-pucon",
    "name": "Air Skydive - Paracaidismo Pucón",
    "slug": "air-skydive-paracaidismo-pucon",
    "latitude": -39.29093,
    "longitude": -71.91921,
    "city": null,
    "state": null,
    "country": "Chile",
    "telephone": "+56974773763",
    "email": null,
    "website": null,
    "source": "scraped"
  },
  {
    "id": "chinihue",
    "name": "Chinihue",
    "slug": "chinihue",
    "latitude": -33.6775327579148,
    "longitude": -71.109523773193,
    "city": null,
    "state": null,
    "country": "Chile",
    "telephone": "+56.9.9129.5519",
    "email": "skydive@hotmail.com",
    "website": null,
    "source": "scraped"
  },
  {
    "id": "escuela-de-paracaidistas",
    "name": "Escuela de Paracaidistas",
    "slug": "escuela-de-paracaidistas",
    "latitude": -34.9661009339784,
    "longitude": -71.216184009681,
    "city": null,
    "state": null,
    "country": "Chile",
    "telephone": "+56 9 77659349",
    "email": "ppbcrra@gmail.com",
    "website": "https://www.escueladeparacaidistas.com",
    "source": "scraped"
  },
  {
    "id": "nimbus-paracaidismo-deportivo",
    "name": "Nimbus Paracaidismo Deportivo",
    "slug": "nimbus-paracaidismo-deportivo",
    "latitude": -32.851111,
    "longitude": -71.246389,
    "city": null,
    "state": null,
    "country": "Chile",
    "telephone": "562-3247037",
    "email": null,
    "website": null,
    "source": "scraped"
  },
  {
    "id": "los-cerrillos",
    "name": "Los Cerrillos",
    "slug": "los-cerrillos",
    "latitude": -33.49546,
    "longitude": -70.694015,
    "city": null,
    "state": null,
    "country": "Chile",
    "telephone": "56-02-5358943",
    "email": "amerindio83@hotmail.com",
    "website": null,
    "source": "scraped"
  },
  {
    "id": "santa-teresa-del-almendral",
    "name": "Santa Teresa del Almendral",
    "slug": "santa-teresa-del-almendral",
    "latitude": -33.575035,
    "longitude": -71.261806,
    "city": null,
    "state": null,
    "country": "Chile",
    "telephone": "569.9841 0241",
    "email": null,
    "website": "https://paracaidas.cl",
    "source": "scraped"
  },
  {
    "id": "skydive-nimbus",
    "name": "Skydive Nimbus",
    "slug": "skydive-nimbus",
    "latitude": -32.84901,
    "longitude": -71.25485,
    "city": null,
    "state": null,
    "country": "Chile",
    "telephone": "+56 9 8165 6650",
    "email": null,
    "website": null,
    "source": "scraped"
  },
  {
    "id": "skydive-pucon-inc",
    "name": "Skydive Pucon Inc.",
    "slug": "skydive-pucon-inc",
    "latitude": -39.291679,
    "longitude": -71.917588,
    "city": null,
    "state": null,
    "country": "Chile",
    "telephone": "+56 961 557 699",
    "email": "peter.vermehren@gmail.com",
    "website": "https://skydivepucon123.wixsite.com",
    "source": "scraped"
  },
  {
    "id": "aerodromo-diego-portales-de-la-ligua",
    "name": "Aeródromo Diego Portales de la Ligua",
    "slug": "aerodromo-diego-portales-de-la-ligua",
    "latitude": -32.44872222,
    "longitude": -71.25886111,
    "city": null,
    "state": null,
    "country": "Chile",
    "telephone": "+56 332 713 251",
    "email": null,
    "website": "https://www.clubaereodelaligua.cl/",
    "source": "scraped"
  },
  {
    "id": "torquemada",
    "name": "Torquemada",
    "slug": "torquemada",
    "latitude": -32.950833846088,
    "longitude": -71.477447748184,
    "city": null,
    "state": null,
    "country": "Chile",
    "telephone": null,
    "email": null,
    "website": "https://www.clubaereonaval.cl",
    "source": "scraped"
  },
  {
    "id": "paracaidismo-chile-pcl-skydiving-chile",
    "name": "Paracaidismo Chile - PCL - Skydiving Chile",
    "slug": "paracaidismo-chile-pcl-skydiving-chile",
    "latitude": -33.4120243181587,
    "longitude": -71.164845799813,
    "city": null,
    "state": null,
    "country": "Chile",
    "telephone": "+56 9 5675 5488",
    "email": null,
    "website": "https://paracaidismochile.cl",
    "source": "scraped"
  },
  {
    "id": "orbital-flyers",
    "name": "Orbital Flyers",
    "slug": "orbital-flyers",
    "latitude": -33.4120275356526,
    "longitude": -71.165742874145,
    "city": null,
    "state": null,
    "country": "Chile",
    "telephone": null,
    "email": null,
    "website": "https://orbitalflyers.com",
    "source": "scraped"
  },
  {
    "id": "skydive-andes-paracaidismo-en-chile",
    "name": "Skydive Andes Paracaidismo en Chile",
    "slug": "skydive-andes-paracaidismo-en-chile",
    "latitude": -33.6775327579148,
    "longitude": -71.109523773193,
    "city": null,
    "state": null,
    "country": "Chile",
    "telephone": "+56.9.9129.5519",
    "email": null,
    "website": "https://www.skydiveandes.cl",
    "source": "scraped"
  },
  {
    "id": "tuofeng-skydive-hangzhou",
    "name": "Tuofeng skydive - Hangzhou",
    "slug": "tuofeng-skydive-hangzhou",
    "latitude": 29.3482987452481,
    "longitude": 119.17176744471,
    "city": null,
    "state": null,
    "country": "China",
    "telephone": "+86 4000871332",
    "email": null,
    "website": "https://www.tfskydive.com",
    "source": "scraped"
  },
  {
    "id": "anyang-national-parachute-team-training-base",
    "name": "Anyang National Parachute Team training base",
    "slug": "anyang-national-parachute-team-training-base",
    "latitude": 36.13039,
    "longitude": 114.34364,
    "city": null,
    "state": null,
    "country": "China",
    "telephone": "13603860111",
    "email": null,
    "website": null,
    "source": "scraped"
  },
  {
    "id": "china-greatsky-skydiving-club",
    "name": "China GreatSky Skydiving Club",
    "slug": "china-greatsky-skydiving-club",
    "latitude": 40.079749,
    "longitude": 116.603114,
    "city": null,
    "state": null,
    "country": "China",
    "telephone": null,
    "email": null,
    "website": null,
    "source": "scraped"
  },
  {
    "id": "tuofeng-skydive-yangjiang",
    "name": "Tuofeng skydive - Yangjiang",
    "slug": "tuofeng-skydive-yangjiang",
    "latitude": 21.9568209943797,
    "longitude": 112.10962489847,
    "city": null,
    "state": null,
    "country": "China",
    "telephone": "+86 4000871332",
    "email": null,
    "website": "https://www.tfskydive.com",
    "source": "scraped"
  },
  {
    "id": "paracaidismo-colombia",
    "name": "Paracaidismo Colombia",
    "slug": "paracaidismo-colombia",
    "latitude": 4.27692061835175,
    "longitude": -74.799299240112,
    "city": null,
    "state": null,
    "country": "Colombia",
    "telephone": "57.1.288.8863 Cell. 313.340.4139",
    "email": null,
    "website": null,
    "source": "scraped"
  },
  {
    "id": "xielo-skydive",
    "name": "XIELO SKYDIVE",
    "slug": "xielo-skydive",
    "latitude": 4.23404869421488,
    "longitude": -74.835514426231,
    "city": null,
    "state": null,
    "country": "Colombia",
    "telephone": "+573115608276",
    "email": null,
    "website": null,
    "source": "scraped"
  },
  {
    "id": "xielo-skydive-colombia-cartagena-de-indias",
    "name": "Xielo Skydive Colombia - Cartagena de Indias",
    "slug": "xielo-skydive-colombia-cartagena-de-indias",
    "latitude": 4.234059,
    "longitude": -74.835511,
    "city": null,
    "state": null,
    "country": "Colombia",
    "telephone": "571 5201503",
    "email": null,
    "website": null,
    "source": "scraped"
  },
  {
    "id": "aeroclub-bogota",
    "name": "Aeroclub Bogota",
    "slug": "aeroclub-bogota",
    "latitude": 4.277222,
    "longitude": -74.798769,
    "city": null,
    "state": null,
    "country": "Colombia",
    "telephone": "+57 316 4826463",
    "email": "aeroclubskydive@gmail.com",
    "website": "https://aeroclubskydive.com/",
    "source": "scraped"
  },
  {
    "id": "flandes",
    "name": "Flandes",
    "slug": "flandes",
    "latitude": 4.277215,
    "longitude": -74.798755,
    "city": null,
    "state": null,
    "country": "Colombia",
    "telephone": null,
    "email": "francois@skydivecolombia.com",
    "website": "https://skydivecolombia.com",
    "source": "scraped"
  },
  {
    "id": "aeroclub-del-aranjuez",
    "name": "Aeroclub Del Aranjuez",
    "slug": "aeroclub-del-aranjuez",
    "latitude": 10.0590576404673,
    "longitude": -84.809174537659,
    "city": null,
    "state": null,
    "country": "Costa Rica",
    "telephone": "+506 8520 2171",
    "email": "rof04@live.com",
    "website": null,
    "source": "scraped"
  },
  {
    "id": "skydive-costa-rica-2",
    "name": "Skydive Costa Rica",
    "slug": "skydive-costa-rica-2",
    "latitude": 9.4484355717324,
    "longitude": -84.076792420819,
    "city": null,
    "state": null,
    "country": "Costa Rica",
    "telephone": "(506) 8350-2746",
    "email": null,
    "website": null,
    "source": "scraped"
  },
  {
    "id": "sinj",
    "name": "Sinj",
    "slug": "sinj",
    "latitude": 43.70114,
    "longitude": 16.67079,
    "city": null,
    "state": null,
    "country": "Croatia",
    "telephone": "00385956606222",
    "email": null,
    "website": "https://aeroklubsinj.hr/",
    "source": "scraped"
  },
  {
    "id": "campanozmedulin",
    "name": "Campanož/Medulin",
    "slug": "campanozmedulin",
    "latitude": 44.84516,
    "longitude": 13.90125,
    "city": null,
    "state": null,
    "country": "Croatia",
    "telephone": "+385 98 774 798, +385 98 917 8080, +385",
    "email": null,
    "website": null,
    "source": "scraped"
  },
  {
    "id": "dz-cakovec",
    "name": "DZ Cakovec",
    "slug": "dz-cakovec",
    "latitude": 46.395758,
    "longitude": 16.501508,
    "city": null,
    "state": null,
    "country": "Croatia",
    "telephone": "(+385) 0(40) 360-303",
    "email": "webmaster@akck.hr",
    "website": null,
    "source": "scraped"
  },
  {
    "id": "skydiving-croatia",
    "name": "Skydiving Croatia",
    "slug": "skydiving-croatia",
    "latitude": 45.76273,
    "longitude": 15.84915,
    "city": null,
    "state": null,
    "country": "Croatia",
    "telephone": "+385915213588",
    "email": null,
    "website": "https://www.skydivingcroatia.com",
    "source": "scraped"
  },
  {
    "id": "skydiving-tandem",
    "name": "Skydiving Tandem",
    "slug": "skydiving-tandem",
    "latitude": 45.7697428452141,
    "longitude": 15.856554508209,
    "city": null,
    "state": null,
    "country": "Croatia",
    "telephone": "+385 99 4433226",
    "email": null,
    "website": "https://skydivingtandem.eu",
    "source": "scraped"
  },
  {
    "id": "aeroclub-slobodan-pad-freefall",
    "name": "Aeroclub Slobodan Pad (Freefall)",
    "slug": "aeroclub-slobodan-pad-freefall",
    "latitude": 45,
    "longitude": 16,
    "city": null,
    "state": null,
    "country": "Croatia",
    "telephone": "+385914290926",
    "email": "skydiver@slobodanpad.hr",
    "website": "https://slobodanpad.hr",
    "source": "scraped"
  },
  {
    "id": "padobranski-klub-krila-kvarnera-rijeka",
    "name": "Padobranski Klub Krila Kvarnera Rijeka",
    "slug": "padobranski-klub-krila-kvarnera-rijeka",
    "latitude": 45.3785128412808,
    "longitude": 14.5128428936,
    "city": null,
    "state": null,
    "country": "Croatia",
    "telephone": "00385 51 250 845, 00385 98 866659",
    "email": "dalibor.molnar@gmail.com",
    "website": "https://www.padobranstvo.hr",
    "source": "scraped"
  },